[
  {
    "id": 0,
    "label": "Campo, CA",
    "type": "town",
    "radius": 1,
    "waypoint": {
      "latitude": 32.607582,
      "longitude": -116.469732
    },
    "pois": []
  },
  {
    "id": 1,
    "label": "Morena Village",
    "type": "town",
    "radius": 1,
    "waypoint": {
      "latitude": 32.679383,
      "longitude": -116.505438
    },
    "pois": [],
    "anchorPoint": {
      "latitude": 32.682597,
      "longitude": -116.516642
    }},
  {
    "id": 2,
    "label": "Mt. Laguna",
    "type": "town",
    "radius": 1,
    "waypoint": {
      "latitude": 32.867469,
      "longitude": -116.418793
    },
    "pois": [],
    "anchorPoint": {
      "latitude": 32.871248,
      "longitude": -116.415299
    }
  },
  {
    "id": 3,
    "label": "Stagecoach Trails RV Resort",
    "type": "resort",
    "radius": 1,
    "waypoint": {
      "latitude": 33.060419,
      "longitude": -116.424933
    },
    "pois": [],
    "anchorPoint": {
      "latitude": 33.093543,
      "longitude": -116.462592
    }
  },
  {
    "id": 4,
    "label": "Julian",
    "type": "town",
    "radius": 1,
    "waypoint": {
      "latitude": 33.078344,
      "longitude": -116.602072
    },
    "pois": [],
    "anchorPoint": {
      "latitude": 33.097703,
      "longitude": -116.472981
    }
  },
  {
    "id": 5,
    "label": "Warner Springs",
    "type": "town",
    "radius": 1,
    "waypoint": {
      "latitude": 33.283599,
      "longitude": -116.634486
    },
    "pois": [],
    "anchorPoint": {
      "latitude": 33.273140,
      "longitude": -116.645365
    }
  },
  {
    "id": 6,
    "label": "Lake Henshaw Resort",
    "type": "resort",
    "radius": 1,
    "waypoint": {
      "latitude": 33.232029,
      "longitude": -116.760122
    },
    "pois": [],
    "anchorPoint": {
      "latitude": 33.273140,
      "longitude": -116.645365
    }
  },
  {
    "id": 7,
    "label": "Santa Ysabel, CA",
    "type": "town",
    "radius": 1,
    "waypoint": {
      "latitude": 33.109179,
      "longitude": -116.673795
    },
    "pois": [],
    "anchorPoint": {
      "latitude": 33.273140,
      "longitude": -116.645365
    }
  }
]
