{"abbr":"DEMO","id":0,"length":109.5,"scrollbarSegmentSize":100,"version":"1.1","direction":0,"pois":[{"name":"MexBorder","description":" Southern Terminus of the PCT trail register is behind the monument.","id":0,"waypoint":{"latitude":"32.589720","longitude":"-116.466988","elevation":2917.6509186351705,"distance":2.4198},"type":"end","label":"Mexican Border","anchorPoint":{"latitude":32.58976044918962,"longitude":-116.46698571191708,"elevation":2916.4285994372754,"distance":4.1526653974022265,"distanceTotal":4.1526653974022265},"belongsTo":1},{"name":"WR001","description":" faucet behind sign.<br/><br/>WATER ALERT: Next northbound water after the Juvenile Ranch may be the Lake Morena Campground in 18.7 miles. Check the <a href=\"http://pctwater.com \" target=\"_blank\">pctwater.com </a>for current water information.","id":1,"waypoint":{"latitude":"32.603062","longitude":"-116.470132","elevation":2625.3280839895015,"distance":19.7049},"type":"water","label":"Juvenile Ranch facility","anchorPoint":{"latitude":32.6029604183833,"longitude":-116.47031564367892,"elevation":2629.117265649139,"distance":366.7521801278074,"distanceTotal":1976.0961801278074},"belongsTo":2},{"name":"RD0001","description":"","id":2,"waypoint":{"latitude":"32.603185","longitude":"-116.470325","elevation":2625,"distance":3.1141},"type":"road","label":"PCT joins paved Forest Gate Road for 2/10 mile.","anchorPoint":{"latitude":32.60314770692965,"longitude":-116.47029675290335,"elevation":2625.7527668133043,"distance":391.20785696677126,"distanceTotal":2000.5518569667713},"belongsTo":2},{"name":"RD0001B","description":"","id":3,"waypoint":{"latitude":"32.605325","longitude":"-116.471378","elevation":2586.286089238845,"distance":2.4699},"type":"road","label":"PCT departs paved Forrest Gate Road on a trail.","anchorPoint":{"latitude":32.60531708786519,"longitude":-116.47138564629039,"elevation":2586.3846363113284,"distance":663.218997441686,"distanceTotal":2272.562997441686},"belongsTo":2},{"name":"PO0001","description":" pay phone and a post office [619-478-5466].","id":4,"waypoint":{"latitude":"32.607373","longitude":"-116.470798","elevation":2573.818897637795,"distance":235.0218},"type":"postoffice","label":"Campo is a small town on the PCT with a small store","anchorPoint":{"latitude":32.60567676036879,"longitude":-116.47236107812016,"elevation":2595.478717986002,"distance":777.148412224589,"distanceTotal":2386.4924122245893},"belongsTo":2},{"name":"TradingPost","description":" small store in Campo 2/10 mile E of PCT.","id":5,"waypoint":{"latitude":"32.608394","longitude":"-116.474383","elevation":2545.9317585301837,"distance":182.5241},"type":"unknown","label":"Trading Post","anchorPoint":{"latitude":32.606782090025675,"longitude":-116.47498112746399,"elevation":2616.544757998321,"distance":1098.2807247731103,"distanceTotal":2707.6247247731103},"belongsTo":2},{"name":"Hwy94","description":"","id":6,"waypoint":{"latitude":"32.605528","longitude":"-116.483197","elevation":2470.1443569553803,"distance":6.7372},"type":"highway","label":"Highway 94","anchorPoint":{"latitude":32.60556076663533,"longitude":-116.48325269097539,"elevation":2470.7961584068325,"distance":587.1885639864928,"distanceTotal":3805.876563986493},"belongsTo":3},{"name":"RR0003","description":"","id":7,"waypoint":{"latitude":"32.607188","longitude":"-116.489084","elevation":2463.9107611548557,"distance":16.5878},"type":"railroad","label":"Railroad tracks","anchorPoint":{"latitude":32.60711354731383,"longitude":-116.48902292083972,"elevation":2461.6845973634563,"distance":1.794097851966736,"distanceTotal":4829.826097851967},"belongsTo":4},{"name":"WR004","description":"","id":8,"waypoint":{"latitude":"32.608000","longitude":"-116.498991","elevation":2374.3438320209975,"distance":1.2283},"type":"water","label":"Creeklet","anchorPoint":{"latitude":32.60798958126275,"longitude":-116.4990131376391,"elevation":2374.642507900518,"distance":366.7143184934266,"distanceTotal":6804.090318493427},"belongsTo":5},{"name":"CS0005","description":"","id":9,"waypoint":{"latitude":"32.607284","longitude":"-116.501337","elevation":2377.9527559055114,"distance":26.9504},"type":"camp","label":"Campsite in a dry meadow","anchorPoint":{"latitude":32.607103553429475,"longitude":-116.50153119153264,"elevation":2381.273388537772,"distance":692.7559228657692,"distanceTotal":7130.131922865769},"belongsTo":5},{"name":"GT0005","description":"","id":10,"waypoint":{"latitude":"32.607768","longitude":"-116.502488","elevation":2413.3858267716537,"distance":1.4838},"type":"gate","label":"Pipe gate","anchorPoint":{"latitude":32.607752719008175,"longitude":-116.50248168722155,"elevation":2414.031263708469,"distance":842.0912496338697,"distanceTotal":7279.46724963387},"belongsTo":5},{"name":"GT0009","description":"","id":11,"waypoint":{"latitude":"32.623760","longitude":"-116.518248","elevation":3355.314960629921,"distance":29.1605},"type":"gate","label":"Pipe gate","anchorPoint":{"latitude":32.6240651690077,"longitude":-116.51792329577903,"elevation":3363.5517170570943,"distance":431.3634446823337,"distanceTotal":13306.115444682335},"belongsTo":9},{"name":"RD0009","description":"","id":12,"waypoint":{"latitude":"32.623311","longitude":"-116.518694","elevation":3340.551181102362,"distance":2.6514},"type":"road","label":"Unpaved jeep road","anchorPoint":{"latitude":32.623304191545415,"longitude":-116.5187415600853,"elevation":3340.8532965773907,"distance":536.4913447226688,"distanceTotal":13411.243344722669},"belongsTo":9},{"name":"GT0009B","description":"","id":13,"waypoint":{"latitude":"32.623571","longitude":"-116.519354","elevation":3361.548556430446,"distance":15.9397},"type":"unknown","label":"Pipe gate","anchorPoint":{"latitude":32.623523720117596,"longitude":-116.5192660348784,"elevation":3358.896373736806,"distance":599.3221074746364,"distanceTotal":13474.074107474637},"belongsTo":9},{"name":"RD0009B","description":"","id":14,"waypoint":{"latitude":"32.624799","longitude":"-116.520392","elevation":3342.847769028871,"distance":22.2854},"type":"road","label":"Unpaved jeep road","anchorPoint":{"latitude":32.624797695166365,"longitude":-116.52027023704547,"elevation":3344.9004060841626,"distance":837.3479287256577,"distanceTotal":13712.099928725658},"belongsTo":9},{"name":"RD0011","description":"","id":15,"waypoint":{"latitude":"32.643349","longitude":"-116.524187","elevation":3369.0944881889764,"distance":13.7477},"type":"road","label":"Unpaved jeep road","anchorPoint":{"latitude":32.64339295426568,"longitude":-116.52409871647639,"elevation":3365.445676438119,"distance":609.3608842045838,"distanceTotal":16702.800884204586},"belongsTo":11},{"name":"GT0012","description":"","id":16,"waypoint":{"latitude":"32.648740","longitude":"-116.528003","elevation":3292.322834645669,"distance":1.7053},"type":"gate","label":"Pipe gate","anchorPoint":{"latitude":32.648766949752684,"longitude":-116.52801641921683,"elevation":3291.4691586173844,"distance":470.6251896876638,"distanceTotal":18173.409189687663},"belongsTo":12},{"name":"GT0012B","description":"","id":17,"waypoint":{"latitude":"32.651215","longitude":"-116.533831","elevation":3141.4041994750655,"distance":14.9495},"type":"unknown","label":"Pipe gate","anchorPoint":{"latitude":32.65120616254391,"longitude":-116.53386914000858,"elevation":3140.583985266424,"distance":1515.2274470505147,"distanceTotal":19218.011447050514},"belongsTo":12},{"name":"PL0014","description":"","id":18,"waypoint":{"latitude":"32.658181","longitude":"-116.548866","elevation":2980.314960629921,"distance":29.1682},"type":"powerline","label":"Powerline","anchorPoint":{"latitude":32.65831430890007,"longitude":-116.54858755315949,"elevation":2948.0412089185043,"distance":766.2988760314555,"distanceTotal":21687.770876031456},"belongsTo":14},{"name":"RD0014","description":" near a yellow sign in Spanish cautioning travelevationrs. ","id":19,"waypoint":{"latitude":"32.660050","longitude":"-116.550710","elevation":2939.304461942257,"distance":2.822},"type":"road","label":"PCT joins unpaved South Boundary Rd for 3/10 mile. Pass an unpaved and unsigned road on your left. Do not take this dead-end road. Continue another 3/10 mile to where the PCT departs South Boundary Rd on a trail with a PCT sign","anchorPoint":{"latitude":32.66004746971538,"longitude":-116.5506882087624,"elevation":2938.640287704538,"distance":660.4137329739424,"distanceTotal":21581.885732973944},"belongsTo":14},{"name":"PL0014B","description":"","id":20,"waypoint":{"latitude":"32.658186","longitude":"-116.547955","elevation":2911.4173228346453,"distance":15.5664},"type":"unknown","label":"Powerline","anchorPoint":{"latitude":32.65819185556511,"longitude":-116.54802848117748,"elevation":2914.608304091984,"distance":1021.794346349154,"distanceTotal":21943.266346349155},"belongsTo":14},{"name":"RD0015","description":"","id":21,"waypoint":{"latitude":"32.654718","longitude":"-116.542627","elevation":2830.7086614173227,"distance":9.4669},"type":"road","label":"PCT departs unpaved South Boundary Rd.","anchorPoint":{"latitude":32.654699724568566,"longitude":-116.54268760724506,"elevation":2833.630805037575,"distance":137.54766984704474,"distanceTotal":22668.363669847044},"belongsTo":15},{"name":"WRCS015","description":" often dry several campsites W of trail. Nearby unpaved Hauser Creek road is blocked to vehicle traffic. ","id":22,"waypoint":{"latitude":"32.661418","longitude":"-116.545505","elevation":2316.929133858268,"distance":9.5982},"type":"water, camp","label":"Hauser Creek","anchorPoint":{"latitude":32.661430107015455,"longitude":-116.54554330650325,"elevation":2320.5301702831825,"distance":1213.7994990722225,"distanceTotal":23744.61549907222},"belongsTo":15},{"name":"WACS016","description":" follow dirt road 1.6 miles W of PCT.","id":23,"waypoint":{"latitude":"32.672542","longitude":"-116.567716","elevation":1824.8031496062993,"distance":2111.7612},"type":"water, camp","label":"Cottonwood Creek below Lake Morena","anchorPoint":{"latitude":32.65990443153807,"longitude":-116.55062463623914,"elevation":2941.6041952328264,"distance":660.4137329739424,"distanceTotal":21581.885732973944},"belongsTo":14},{"name":"LakeMorenaCG","description":"","id":24,"waypoint":{"latitude":"32.682523","longitude":"-116.517143","elevation":3074.1469816272966,"distance":23.0845},"type":"unknown","label":"Trailhead parking near Lake Morena Campground. PCT joins paved Lake Shore Drive for 2/10 mile N. Campground office is 3/10 mile NW on Lake Morena Drive. Lake Morena Village with small store/deli nearby. <br/><br/>WATER ALERT: Next southbound water after Lake Morena Campground may be the faucet at the Juvenile Ranch facility in 18.7 miles. Check pctwater.com for the latest water information.","anchorPoint":{"latitude":32.68254432937604,"longitude":-116.51748199425614,"elevation":3086.702809979904,"distance":288.4771457443203,"distanceTotal":30866.01314574432},"belongsTo":20},{"name":"OakShoreGro","description":" small store w/ deli 4/10 mile SE of PCT in Lake Morena Village.","id":25,"waypoint":{"latitude":"32.680169","longitude":"-116.512125","elevation":3113.845144356955,"distance":507.7527},"type":"unknown","label":"Oak Shore Grocery","anchorPoint":{"latitude":32.68252096230384,"longitude":-116.51732990347249,"elevation":3081.981056354336,"distance":295.43719798750215,"distanceTotal":30872.973197987503},"belongsTo":20},{"name":"RD0020","description":"","id":26,"waypoint":{"latitude":"32.684919","longitude":"-116.516647","elevation":3054.790026246719,"distance":2.1092},"type":"road","label":"PCT departs paved Lake Shore Drive on a trail.","anchorPoint":{"latitude":32.68491926836928,"longitude":-116.51664804726423,"elevation":3054.9771386552734,"distance":642.3313546601667,"distanceTotal":31219.867354660168},"belongsTo":20},{"name":"GT0021","description":"","id":27,"waypoint":{"latitude":"32.689530","longitude":"-116.514037","elevation":3049.540682414698,"distance":12.7611},"type":"gate","label":"Pipe gate","anchorPoint":{"latitude":32.68939352401901,"longitude":-116.51419832757571,"elevation":3045.962495382674,"distance":1349.8733249884501,"distanceTotal":31927.40932498845},"belongsTo":20},{"name":"WR024","description":" usually dry.","id":28,"waypoint":{"latitude":"32.715239","longitude":"-116.499008","elevation":3065.2887139107606,"distance":17.3461},"type":"water","label":"Cottonwood Creek Bridge","anchorPoint":{"latitude":32.71534561843382,"longitude":-116.49903948394726,"elevation":3066.2755688581738,"distance":704.6677950518628,"distanceTotal":37719.57979505187},"belongsTo":24},{"name":"WR026","description":"","id":29,"waypoint":{"latitude":"32.729263","longitude":"-116.490416","elevation":3106.9553805774276,"distance":27.9197},"type":"water","label":"Cottonwood Creek bed","anchorPoint":{"latitude":32.72925782305575,"longitude":-116.49035122471294,"elevation":3108.045402093038,"distance":1460.9678416861273,"distanceTotal":40085.22384168613},"belongsTo":25},{"name":"BoulderOakCG","description":" outhouse water picnic tables. ","id":30,"waypoint":{"latitude":"32.729016","longitude":"-116.483168","elevation":3183.0708661417325,"distance":11.8413},"type":"unknown","label":"Boulder Oaks Campground","anchorPoint":{"latitude":32.72899590047351,"longitude":-116.48318514985415,"elevation":3183.774369734227,"distance":703.3229835633937,"distanceTotal":40936.92298356339},"belongsTo":26},{"name":"Hwy8","description":"","id":31,"waypoint":{"latitude":"32.734293","longitude":"-116.480025","elevation":3145.3412073490813,"distance":25.2384},"type":"highway","label":"Interstate Highway 8","anchorPoint":{"latitude":32.73427667686453,"longitude":-116.48023734868704,"elevation":3145.099370872763,"distance":-31.923820138501128,"distanceTotal":41811.020179861494},"belongsTo":27},{"name":"KitchenCrFalls","description":" 2/10 mile N of PCT mile 28.6.","id":32,"waypoint":{"latitude":"32.742984","longitude":"-116.464639","elevation":3635.1706036745404,"distance":91.353},"type":"unknown","label":"Kitchen Creek Falls","anchorPoint":{"latitude":32.74310552004596,"longitude":-116.46354257381047,"elevation":3766.7309899449297,"distance":481.90959163790103,"distanceTotal":45543.5415916379},"belongsTo":29},{"name":"GT0030","description":"","id":33,"waypoint":{"latitude":"32.749634","longitude":"-116.455646","elevation":3910.10498687664,"distance":7.4585},"type":"gate","label":"Pipe gate","anchorPoint":{"latitude":32.74955937306115,"longitude":-116.45552755454723,"elevation":3910.406006527054,"distance":219.50456705398247,"distanceTotal":46890.480567053986},"belongsTo":30},{"name":"RD0030","description":" paved pipe gate E of road.","id":34,"waypoint":{"latitude":"32.747545","longitude":"-116.451340","elevation":3995.0787401574803,"distance":7.1875},"type":"road","label":"Kitchen Creek Rd","anchorPoint":{"latitude":32.7476409107813,"longitude":-116.45139126850718,"elevation":3992.7263972862006,"distance":908.0992250484996,"distanceTotal":47579.0752250485},"belongsTo":30},{"name":"WRCS030","description":" 4/10 mile N on Kitchen Creek Rd often has water early in the hiking season good camping if you don't mind the nearby (but seldom used) road.","id":35,"waypoint":{"latitude":"32.752986","longitude":"-116.451728","elevation":3841.8635170603675,"distance":520.4628},"type":"water, camp","label":"Seasonal Yellow Rose Spring","anchorPoint":{"latitude":32.74926797696445,"longitude":-116.45519638331568,"elevation":3899.455702652454,"distance":254.34056754728869,"distanceTotal":46925.31656754729},"belongsTo":30},{"name":"WRCS032","description":" usually dry campsite W of trail.","id":36,"waypoint":{"latitude":"32.764221","longitude":"-116.439089","elevation":4210.301837270341,"distance":19.9934},"type":"water, camp","label":"Fred Canyon","anchorPoint":{"latitude":32.76428724203098,"longitude":-116.43881823663408,"elevation":4216.704394370592,"distance":796.1953594953084,"distanceTotal":50685.85935949531},"belongsTo":32},{"name":"CibbetsCG","description":" 8/10 mile NW of PCT water outhouse picnic tables.","id":37,"waypoint":{"latitude":"32.777702","longitude":"-116.445420","elevation":4155.511811023622,"distance":545.5298},"type":"unknown","label":"Cibbets Flat Campground","anchorPoint":{"latitude":32.77558093146785,"longitude":-116.43993325826966,"elevation":4552.251546668015,"distance":677.4389708004909,"distanceTotal":52176.44697080049},"belongsTo":33},{"name":"RD0033","description":" access to Cibbets Flat Campground.","id":38,"waypoint":{"latitude":"32.771631","longitude":"-116.439064","elevation":4408.7926509186345,"distance":41.2454},"type":"road","label":"Unpaved Fred Canyon Rd","anchorPoint":{"latitude":32.77194130821079,"longitude":-116.43903105010834,"elevation":4408.76171043029,"distance":151.77263584685392,"distanceTotal":51650.78063584686},"belongsTo":33},{"name":"CS0036","description":"","id":39,"waypoint":{"latitude":"32.801679","longitude":"-116.421052","elevation":5292.322834645669,"distance":15.9766},"type":"camp","label":"Campsite by large oak tree.","anchorPoint":{"latitude":32.80173521439875,"longitude":-116.4209078679602,"elevation":5293.769191280997,"distance":1092.5972093773876,"distanceTotal":57419.63720937739},"belongsTo":36},{"name":"WR037","description":"","id":40,"waypoint":{"latitude":"32.811006","longitude":"-116.422472","elevation":5194.881889763779,"distance":53.1395},"type":"water","label":"Long Canyon","anchorPoint":{"latitude":32.81050908654213,"longitude":-116.42291655080763,"elevation":5198.887003257872,"distance":672.5963083709285,"distanceTotal":58608.980308370934},"belongsTo":37},{"name":"CS0037","description":"","id":41,"waypoint":{"latitude":"32.812993","longitude":"-116.419706","elevation":5247.047244094488,"distance":21.4586},"type":"camp","label":"Campsite near Long Creek.","anchorPoint":{"latitude":32.813126925845566,"longitude":-116.41954432455191,"elevation":5246.321082020994,"distance":1168.29792236887,"distanceTotal":59104.68192236887},"belongsTo":37},{"name":"CS0038","description":"","id":42,"waypoint":{"latitude":"32.817914","longitude":"-116.414662","elevation":5437.007874015748,"distance":33.7504},"type":"camp","label":"Campsite among the dead trees.","anchorPoint":{"latitude":32.817580835611906,"longitude":-116.41506202417837,"elevation":5422.609508897171,"distance":330.06170528032203,"distanceTotal":59875.789705280324},"belongsTo":38},{"name":"WR038","description":"","id":43,"waypoint":{"latitude":"32.819298","longitude":"-116.414038","elevation":5441.601049868766,"distance":7.7631},"type":"water","label":"Long Canyon Creek ford","anchorPoint":{"latitude":32.819275436369466,"longitude":-116.41400313298223,"elevation":5448.019766435425,"distance":564.3113241920728,"distanceTotal":60110.039324192076},"belongsTo":38},{"name":"TR0039","description":"","id":44,"waypoint":{"latitude":"32.828343","longitude":"-116.417805","elevation":5889.107611548556,"distance":12.6756},"type":"trail","label":"Trail junction to Lower Morris Meadow Spring","anchorPoint":{"latitude":32.82850576738225,"longitude":-116.41773046326935,"elevation":5891.005420366845,"distance":625.3827668871963,"distanceTotal":61780.4547668872},"belongsTo":39},{"name":"WRCS039","description":" spring campsite 3/10 mile NW of PCT.","id":45,"waypoint":{"latitude":"32.829787","longitude":"-116.420397","elevation":5828.740157480314,"distance":212.852},"type":"water, camp","label":"Lower Morris Meadow","anchorPoint":{"latitude":32.831623063616,"longitude":-116.41953300887815,"elevation":5933.064787590918,"distance":1209.8331253551337,"distanceTotal":62364.90512535514},"belongsTo":39},{"name":"RedTailRoost","description":" parking outhouse 4/10 mile W of PCT.","id":46,"waypoint":{"latitude":"32.857325","longitude":"-116.423376","elevation":5980.314960629921,"distance":456.199},"type":"unknown","label":"Red Tail Roost volunteer center","anchorPoint":{"latitude":32.8547020675917,"longitude":-116.41932673969941,"elevation":5804.310120726349,"distance":1025.197126069496,"distanceTotal":65398.9571260695},"belongsTo":41},{"name":"TR0041","description":"","id":47,"waypoint":{"latitude":"32.858333","longitude":"-116.415658","elevation":5955.052493438319,"distance":2.2465},"type":"trail","label":"Trail junction to Burnt Ranchera Campground and the community of Mount Laguna.","anchorPoint":{"latitude":32.85832523618753,"longitude":-116.41570171599746,"elevation":5952.26301269035,"distance":185.6222255750763,"distanceTotal":66168.72622557508},"belongsTo":42},{"name":"BurntRanchCG","description":" water showers [usually open mid-April to October].","id":48,"waypoint":{"latitude":"32.858580","longitude":"-116.416588","elevation":5936.351706036746,"distance":75.7441},"type":"unknown","label":"Burnt Rancheria Campground","anchorPoint":{"latitude":32.85787245553982,"longitude":-116.41628701192163,"elevation":5928.140758408324,"distance":113.92442351872673,"distanceTotal":66097.02842351873},"belongsTo":42},{"name":"PO0041","description":" 4/10 mile W of PCT. Nearby store lodge [<a href=\"http://lagunamountain.com \" target=\"_blank\">lagunamountain.com </a>619-473-8533] outfitter [Mount Laguna Sports 619-473-0450] restaurant and a Post Office [619-473-8341].","id":49,"waypoint":{"latitude":"32.867127","longitude":"-116.419153","elevation":5916.010498687664,"distance":553.0021},"type":"postoffice","label":"Mount Laguna","anchorPoint":{"latitude":32.86836983956863,"longitude":-116.41339612079932,"elevation":5964.201288546037,"distance":273.140718289818,"distanceTotal":67865.58871828982},"belongsTo":43},{"name":"WR042","description":"","id":50,"waypoint":{"latitude":"32.864153","longitude":"-116.412530","elevation":5970.800524934383,"distance":35.6764},"type":"water","label":"Burnt Rancheria CG drinking fountain.","anchorPoint":{"latitude":32.86437772622195,"longitude":-116.41276371317429,"elevation":5981.047482126958,"distance":1295.4957969085183,"distanceTotal":67278.59979690853},"belongsTo":42},{"name":"WR043","description":" outhouse water picnic table.","id":51,"waypoint":{"latitude":"32.869326","longitude":"-116.414239","elevation":5955.380577427822,"distance":72.0326},"type":"water","label":"Desert View Picnic Area","anchorPoint":{"latitude":32.869495098994825,"longitude":-116.41340899108525,"elevation":5921.462519366032,"distance":410.42867473866255,"distanceTotal":68002.87667473867},"belongsTo":43},{"name":"RD0043","description":" just N of WR043.","id":52,"waypoint":{"latitude":"32.871281","longitude":"-116.415258","elevation":5980.643044619423,"distance":25.7154},"type":"road","label":"Cross a paved road","anchorPoint":{"latitude":32.87099181031294,"longitude":-116.41509162990226,"elevation":5966.754420901493,"distance":691.1874148835168,"distanceTotal":68283.63541488352},"belongsTo":43},{"name":"RD0043b","description":"","id":53,"waypoint":{"latitude":"32.877734","longitude":"-116.420081","elevation":5915.354330708661,"distance":1.3381},"type":"unknown","label":"Cross another paved road.","anchorPoint":{"latitude":32.87772750095365,"longitude":-116.42008725750688,"elevation":5914.584693129351,"distance":133.15492914582137,"distanceTotal":69334.94692914582},"belongsTo":44},{"name":"BigLagunaTr","description":"","id":54,"waypoint":{"latitude":"32.888128","longitude":"-116.425853","elevation":5896.981627296588,"distance":5.3438},"type":"unknown","label":"Big Laguna trail junction","anchorPoint":{"latitude":32.888215399794554,"longitude":-116.42585703511828,"elevation":5898.785531854429,"distance":323.963494049174,"distanceTotal":71135.09949404917},"belongsTo":45},{"name":"FosterPtTr","description":"","id":55,"waypoint":{"latitude":"32.895064","longitude":"-116.439548","elevation":5734.580052493438,"distance":3.6029},"type":"unknown","label":"Foster Point trail junction","anchorPoint":{"latitude":32.89509492859537,"longitude":-116.4396104244584,"elevation":5734.315499962401,"distance":388.7506751608071,"distanceTotal":74418.57467516081},"belongsTo":47},{"name":"Deck0048","description":" trailside bench access to Mount Laguna Campground 7/10 mile SW. Follow paved Sunrise Highway 2/10 mile S to the campground entrance road.","id":56,"waypoint":{"latitude":"32.896524","longitude":"-116.448683","elevation":5421.916010498687,"distance":21.5139},"type":"unknown","label":"Observation deck","anchorPoint":{"latitude":32.896667494973926,"longitude":-116.44869917266948,"elevation":5406.556480003708,"distance":559.6958417093293,"distanceTotal":76198.86384170933},"belongsTo":48},{"name":"LagunaCG","description":" 7/10 mile SW of PCT fee coin-operated showers water open year round.","id":57,"waypoint":{"latitude":"32.889087","longitude":"-116.450430","elevation":5509.842519685039,"distance":679.3731},"type":"unknown","label":"Mount Laguna Campground","anchorPoint":{"latitude":32.8949884306744,"longitude":-116.44814077183214,"elevation":5411.7682402160735,"distance":326.9905552308046,"distanceTotal":75966.15855523081},"belongsTo":48},{"name":"NobleCynTr","description":"","id":58,"waypoint":{"latitude":"32.905933","longitude":"-116.456501","elevation":5433.398950131233,"distance":33.474},"type":"unknown","label":"Noble Canyon trail junction.","anchorPoint":{"latitude":32.90617617390139,"longitude":-116.4563498933917,"elevation":5438.621824068219,"distance":782.8495383333185,"distanceTotal":78031.36153833332},"belongsTo":49},{"name":"WR049","description":" 1/10 mile W of PCT.","id":59,"waypoint":{"latitude":"32.905774","longitude":"-116.458263","elevation":5431.102362204724,"distance":159.0183},"type":"water","label":"GART faucet","anchorPoint":{"latitude":32.905261139584596,"longitude":-116.45651031892088,"elevation":5414.221079576103,"distance":689.5988938828626,"distanceTotal":77938.11089388287},"belongsTo":49},{"name":"GarnetPkTr","description":"","id":60,"waypoint":{"latitude":"32.919770","longitude":"-116.460738","elevation":5490.813648293963,"distance":20.4779},"type":"unknown","label":"Garnet Peak trail junction.","anchorPoint":{"latitude":32.91987092973964,"longitude":-116.46080822668162,"elevation":5486.191043952786,"distance":1614.6335633978294,"distanceTotal":80472.48956339783},"belongsTo":50},{"name":"WR053","description":" outhouse.<br/><br/>\"Remote Camping\" not allowed in the Laguna Mountain Recreation Area.","id":61,"waypoint":{"latitude":"32.925106","longitude":"-116.482388","elevation":5274.278215223097,"distance":7.0489},"type":"water","label":"Pioneer Mail Picnic Area","anchorPoint":{"latitude":32.92508294367312,"longitude":-116.48231638832226,"elevation":5272.553548839892,"distance":773.0010908486996,"distanceTotal":84458.88909084871},"belongsTo":53},{"name":"CS0056","description":"","id":62,"waypoint":{"latitude":"32.953650","longitude":"-116.500407","elevation":5201.443569553806,"distance":42.7932},"type":"camp","label":"Campsite in boulder field.","anchorPoint":{"latitude":32.95344143229015,"longitude":-116.49986032947102,"elevation":5209.125752088638,"distance":1481.1310049751482,"distanceTotal":89995.05100497515},"belongsTo":56},{"name":"SunriseTr","description":"","id":63,"waypoint":{"latitude":"32.980363","longitude":"-116.522236","elevation":4996.062992125984,"distance":2.4719},"type":"unknown","label":"Sunrise Trailhead Junction.","anchorPoint":{"latitude":32.98035914330907,"longitude":-116.52223539052993,"elevation":4996.349692873985,"distance":851.5904852683319,"distanceTotal":95802.88648526833},"belongsTo":60},{"name":"WRCS059","description":" outhouse camping in the open field water 5/10 mile W of PCT mile 59.5. Can be very windy camping at this location.","id":64,"waypoint":{"latitude":"32.977881","longitude":"-116.526924","elevation":4995.734908136483,"distance":516.3267},"type":"water, camp","label":"Sunrise Trailhead","anchorPoint":{"latitude":32.98057452062037,"longitude":-116.52236918707356,"elevation":4987.7513934108065,"distance":895.6565514805626,"distanceTotal":95846.95255148057},"belongsTo":60},{"name":"WR062","description":" 75 yards E of PCT [usually dry].","id":65,"waypoint":{"latitude":"33.010341","longitude":"-116.537514","elevation":4697.506561679789,"distance":47.7287},"type":"water","label":"Mason Valley fire tank","anchorPoint":{"latitude":33.01052210496137,"longitude":-116.53813803864843,"elevation":4700.798319995234,"distance":924.4743317092095,"distanceTotal":100703.80233170922},"belongsTo":63},{"name":"PedroFagesTH","description":" California Riding and Hiking Trail [CRHT] trailhead access to the PCT from Sunrise Hwy via a 1.4 mile section of the CRHT .","id":66,"waypoint":{"latitude":"32.994335","longitude":"-116.542371","elevation":4686.351706036746,"distance":995.0104},"type":"unknown","label":"Pedro Fages Monument","anchorPoint":{"latitude":33.000481577607786,"longitude":-116.53457863292105,"elevation":4742.22201729197,"distance":1042.309989784273,"distanceTotal":99212.29398978427},"belongsTo":62},{"name":"RD0062","description":"","id":67,"waypoint":{"latitude":"33.010642","longitude":"-116.538753","elevation":4693.897637795276,"distance":2.1805},"type":"road","label":"Mason Valley Truck Trail.","anchorPoint":{"latitude":33.01063817578783,"longitude":-116.53875427143042,"elevation":4694.001479292458,"distance":938.0307099233445,"distanceTotal":100717.35870992336},"belongsTo":63},{"name":"CS0064","description":"","id":68,"waypoint":{"latitude":"33.012883","longitude":"-116.527305","elevation":3864.173228346456,"distance":10.6064},"type":"camp","label":"Campsite near dry creekbed just S of Chariot Cyn Rd.","anchorPoint":{"latitude":33.01284316036808,"longitude":-116.52732301281239,"elevation":3864.8107747697836,"distance":1374.8968436434757,"distanceTotal":102763.56884364349},"belongsTo":64},{"name":"WR064A","description":" shade 8/10 mile N of PCT mile 63.7 [2/10 mile N of the State Park boundary sign].","id":69,"waypoint":{"latitude":"33.023269","longitude":"-116.529643","elevation":3661.0892388451443,"distance":749.5336},"type":"water","label":"Seasonal creek crossing Chariot Canyon Rd","anchorPoint":{"latitude":33.02212897907609,"longitude":-116.52155840846892,"elevation":4171.866230109801,"distance":404.1860242283445,"distanceTotal":105011.54602422834},"belongsTo":66},{"name":"WR064B","description":" 1.2 miles N of PCT.","id":70,"waypoint":{"latitude":"33.029059","longitude":"-116.531354","elevation":3610.892388451443,"distance":921.3444},"type":"water","label":"Chariot Canyon Fire Tank","anchorPoint":{"latitude":33.02886824665839,"longitude":-116.52148400850547,"elevation":4245.282531934409,"distance":839.9873475062026,"distanceTotal":107056.6913475062},"belongsTo":67},{"name":"WR064C","description":" 1.4 miles N of PCT spring is on the W side of the road hidden from view by several large oak trees.","id":71,"waypoint":{"latitude":"33.035761","longitude":"-116.536292","elevation":3490.813648293963,"distance":1208.873},"type":"water","label":"Seasonal Chariot Canyon Spring","anchorPoint":{"latitude":33.03558508414078,"longitude":-116.52335100130789,"elevation":4066.172023313141,"distance":396.2599652119037,"distanceTotal":108222.30796521192},"belongsTo":68},{"name":"RD0064","description":"","id":72,"waypoint":{"latitude":"33.013361","longitude":"-116.527222","elevation":3856.955380577427,"distance":3.022},"type":"road","label":"PCT joins Chariot Canyon Rd.","anchorPoint":{"latitude":33.013333304875694,"longitude":-116.52721846307938,"elevation":3858.801507344962,"distance":1420.6560985506512,"distanceTotal":102809.32809855066},"belongsTo":64},{"name":"RD0064b","description":"","id":73,"waypoint":{"latitude":"33.011152","longitude":"-116.523325","elevation":4083.6614173228345,"distance":5.562},"type":"unknown","label":"PCT departs Chariot Canyon Rd.","anchorPoint":{"latitude":33.01118410159753,"longitude":-116.52341161134635,"elevation":4082.811092516483,"distance":351.9373475144477,"distanceTotal":103349.95334751446},"belongsTo":65},{"name":"GT0068","description":"","id":74,"waypoint":{"latitude":"33.050469","longitude":"-116.523844","elevation":3648.293963254593,"distance":8.3193},"type":"gate","label":"Pipe gate","anchorPoint":{"latitude":33.050395466900206,"longitude":-116.52388789108687,"elevation":3649.13978052952,"distance":1062.8253533492098,"distanceTotal":110498.21735334922},"belongsTo":69},{"name":"WR068B","description":" 1.1 miles NW of PCT 50 feet uphill from the large rust colored water tank.","id":75,"waypoint":{"latitude":"33.056431","longitude":"-116.531988","elevation":3312.6640419947507,"distance":978.4613},"type":"water","label":"Spring on Rodriguez Spur Truck Trail","anchorPoint":{"latitude":33.05081489534342,"longitude":-116.52374810661307,"elevation":3646.609464206183,"distance":1104.8493060317287,"distanceTotal":110540.24130603173},"belongsTo":69},{"name":"WRCS068","description":" campsite.<br/><br/>WATER ALERT: Next northbound water after the Rodriguez Spur fire tank may be Barrel Spring in 32.7 miles. This water source was once reliable but has gone dry sometimes in 2016 & 2017 check the <a href=\"http://pctwater.com \" target=\"_blank\">pctwater.com </a>for current water information.","id":76,"waypoint":{"latitude":"33.050184","longitude":"-116.524317","elevation":3652.55905511811,"distance":46.7181},"type":"water, camp","label":"Rodriguez Spur fire tank","anchorPoint":{"latitude":33.05046788595695,"longitude":-116.52393057516667,"elevation":3648.4946541353997,"distance":1062.8253533492098,"distanceTotal":110498.21735334922},"belongsTo":69},{"name":"CS0073","description":"","id":77,"waypoint":{"latitude":"33.067895","longitude":"-116.477950","elevation":3131.8897637795276,"distance":15.0586},"type":"camp","label":"Small campsite N of trail.","anchorPoint":{"latitude":33.06785496172825,"longitude":-116.47784811807351,"elevation":3116.5456369494946,"distance":1169.8255772546418,"distanceTotal":118651.93757725465},"belongsTo":74},{"name":"GT0076","description":"","id":78,"waypoint":{"latitude":"33.085514","longitude":"-116.470021","elevation":2370.4068241469813,"distance":9.8865},"type":"gate","label":"Pipe gate","anchorPoint":{"latitude":33.085498312728,"longitude":-116.47004521461916,"elevation":2370.5395827246325,"distance":7.517631972882917,"distanceTotal":122317.6616319729},"belongsTo":77},{"name":"WRCS077","description":" junction of Hwy 78 and S-2. ","id":79,"waypoint":{"latitude":"33.095834","longitude":"-116.472512","elevation":2277.8871391076113,"distance":15.6451},"type":"water, camp","label":"Scissors Crossing","anchorPoint":{"latitude":33.096055227341694,"longitude":-116.47261281948893,"elevation":2277.118331001909,"distance":704.6153945246559,"distanceTotal":124624.10339452466},"belongsTo":78},{"name":"Hwy78","description":" near Scissors Crossing. Julian is 12 miles W on Highway 78 the Stagecoach Trails RV Park is 4 miles SE of the PCT on S2.","id":80,"waypoint":{"latitude":"33.099146","longitude":"-116.469501","elevation":2537.7,"distance":11.2988},"type":"highway","label":"Highway 78","anchorPoint":{"latitude":33.098995622915474,"longitude":-116.469563403882,"elevation":2261.253280839895,"distance":1274.2783171788085,"distanceTotal":125193.7663171788},"belongsTo":78},{"name":"CS0079","description":"","id":81,"waypoint":{"latitude":"33.110121","longitude":"-116.475133","elevation":2973.7532808398946,"distance":1.87},"type":"camp","label":"Campsite in sandy dry creek bed","anchorPoint":{"latitude":33.110104991775515,"longitude":-116.47511535220126,"elevation":2971.434090513722,"distance":1205.3698203594977,"distanceTotal":128343.5458203595},"belongsTo":80},{"name":"BV0080","description":" view.","id":82,"waypoint":{"latitude":"33.108915","longitude":"-116.478384","elevation":2962.270341207349,"distance":11.4857},"type":"unknown","label":"Small bivy campsite","anchorPoint":{"latitude":33.1090217926075,"longitude":-116.47837697294578,"elevation":2962.11984847058,"distance":126.00844666563181,"distanceTotal":128873.52844666563},"belongsTo":81},{"name":"BV0080B","description":"","id":83,"waypoint":{"latitude":"33.110116","longitude":"-116.480659","elevation":3000,"distance":8.3368},"type":"unknown","label":"Bivy campsite in a wash.","anchorPoint":{"latitude":33.110186378329686,"longitude":-116.48059445884266,"elevation":3011.4364177951156,"distance":432.64536978461354,"distanceTotal":129180.16536978462},"belongsTo":81},{"name":"CS0080C","description":" another campsite in the wash below.","id":84,"waypoint":{"latitude":"33.113776","longitude":"-116.481149","elevation":3066.272965879265,"distance":5.007},"type":"unknown","label":"Small sandy campsite under dry waterfall","anchorPoint":{"latitude":33.11371852525324,"longitude":-116.48121655937248,"elevation":3050.28054283863,"distance":1214.5370941164874,"distanceTotal":129962.05709411649},"belongsTo":81},{"name":"CS0082","description":"","id":85,"waypoint":{"latitude":"33.120230","longitude":"-116.484457","elevation":3074.475065616798,"distance":4.8234},"type":"camp","label":"Several small campsites in wash below the trail.","anchorPoint":{"latitude":33.120245974751825,"longitude":-116.48441535734206,"elevation":3076.1215698119504,"distance":1520.6289198867958,"distanceTotal":131877.4929198868},"belongsTo":82},{"name":"CS0082B","description":" view.","id":86,"waypoint":{"latitude":"33.123716","longitude":"-116.487269","elevation":3166.010498687664,"distance":1.3839},"type":"unknown","label":"Small campsite next to trail","anchorPoint":{"latitude":33.123710117447665,"longitude":-116.48724877992686,"elevation":3164.8387238401597,"distance":1064.1203467411476,"distanceTotal":133030.32834674115},"belongsTo":83},{"name":"BV0085","description":"","id":87,"waypoint":{"latitude":"33.136113","longitude":"-116.495156","elevation":3309.3832020997374,"distance":2.4488},"type":"unknown","label":"Small bivy campsite in a gully.","anchorPoint":{"latitude":33.13609053198304,"longitude":-116.4951907384849,"elevation":3305.027236885689,"distance":1155.3663794902845,"distanceTotal":136340.2623794903},"belongsTo":85},{"name":"CS0085B","description":"","id":88,"waypoint":{"latitude":"33.136838","longitude":"-116.497559","elevation":3286.417322834646,"distance":7.7836},"type":"unknown","label":"Small campsite next to trail.","anchorPoint":{"latitude":33.13673298318596,"longitude":-116.49762917772063,"elevation":3281.3629139454692,"distance":1492.879689996218,"distanceTotal":136677.77568999623},"belongsTo":85},{"name":"CS0085C","description":" better than campsites in the burn area 200 feet before.","id":89,"waypoint":{"latitude":"33.138323","longitude":"-116.503054","elevation":3289.370078740157,"distance":15.3295},"type":"unknown","label":"Large campsite","anchorPoint":{"latitude":33.13819267898673,"longitude":-116.5029684420203,"elevation":3284.275241674389,"distance":893.1299547439984,"distanceTotal":137687.36995474398},"belongsTo":86},{"name":"CS0086","description":"","id":90,"waypoint":{"latitude":"33.140506","longitude":"-116.507511","elevation":3363.1889763779523,"distance":40.0787},"type":"camp","label":"Several campsites on saddle of ridge.","anchorPoint":{"latitude":33.14032530672616,"longitude":-116.50716284421263,"elevation":3376.7375989851444,"distance":221.1361258744885,"distanceTotal":138624.7201258745},"belongsTo":87},{"name":"GT0086","description":" 1st gate N of Hwy 78.","id":91,"waypoint":{"latitude":"33.140784","longitude":"-116.507763","elevation":3364.1732283464567,"distance":1.9625},"type":"gate","label":"Pipe gate","anchorPoint":{"latitude":33.14080264308007,"longitude":-116.50778241128663,"elevation":3363.9999530594673,"distance":303.02551210449786,"distanceTotal":138706.6095121045},"belongsTo":87},{"name":"CS0087","description":"","id":92,"waypoint":{"latitude":"33.145238","longitude":"-116.507822","elevation":3237.2047244094488,"distance":5.8717},"type":"camp","label":"Many campsites along wide dry creekbed.","anchorPoint":{"latitude":33.14516337554543,"longitude":-116.50781990559025,"elevation":3240.2375289040715,"distance":1203.2638126230158,"distanceTotal":139606.84781262302},"belongsTo":87},{"name":"GT0088","description":" 2nd gate N of Highway 78.","id":93,"waypoint":{"latitude":"33.148103","longitude":"-116.517794","elevation":3604.6587926509187,"distance":14.8656},"type":"gate","label":"Pipe gate","anchorPoint":{"latitude":33.148019623413,"longitude":-116.51790269799056,"elevation":3606.4811193131463,"distance":553.4405139647928,"distanceTotal":142175.7125139648},"belongsTo":89},{"name":"CS0088","description":" view.","id":94,"waypoint":{"latitude":"33.147816","longitude":"-116.517922","elevation":3596.1286089238843,"distance":21.1841},"type":"camp","label":"Several small campsites","anchorPoint":{"latitude":33.148080259241006,"longitude":-116.51780037503079,"elevation":3608.4580502214976,"distance":540.6072196849476,"distanceTotal":142162.87921968495},"belongsTo":89},{"name":"BV0089","description":"","id":95,"waypoint":{"latitude":"33.150717","longitude":"-116.520775","elevation":3608.2677165354326,"distance":2.959},"type":"unknown","label":"Small bivy campsite.","anchorPoint":{"latitude":33.15072432120512,"longitude":-116.52082631081338,"elevation":3607.5535028591626,"distance":1158.655384097452,"distanceTotal":142780.92738409745},"belongsTo":89},{"name":"BV0089B","description":" view.","id":96,"waypoint":{"latitude":"33.149376","longitude":"-116.523046","elevation":3568.2414698162725,"distance":20.6422},"type":"unknown","label":"Small bivy campsite","anchorPoint":{"latitude":33.14962677866047,"longitude":-116.52297842489612,"elevation":3588.428912688761,"distance":1463.5433097817877,"distanceTotal":143085.81530978178},"belongsTo":89},{"name":"BV0090","description":"","id":97,"waypoint":{"latitude":"33.155044","longitude":"-116.530938","elevation":3458.9895013123355,"distance":2.9589},"type":"unknown","label":"Small trailside bivy campsite.","anchorPoint":{"latitude":33.15506366777036,"longitude":-116.53099090980736,"elevation":3461.7440359171524,"distance":1246.8671764195024,"distanceTotal":144478.4831764195},"belongsTo":90},{"name":"RD0090","description":" cleared and used as a firebreak in 2012.","id":98,"waypoint":{"latitude":"33.159569","longitude":"-116.538206","elevation":3462.270341207349,"distance":16.8655},"type":"road","label":"Abandoned jeep road","anchorPoint":{"latitude":33.159590646580234,"longitude":-116.53830399437123,"elevation":3464.458044715473,"distance":764.8047701752454,"distanceTotal":145605.76477017524},"belongsTo":91},{"name":"GT0091","description":" 3rd gate N of Hwy 78.","id":99,"waypoint":{"latitude":"33.166741","longitude":"-116.543546","elevation":3559.055118110236,"distance":30.8447},"type":"gate","label":"Pipe gate","anchorPoint":{"latitude":33.16710782489454,"longitude":-116.5434789115006,"elevation":3546.5137814962395,"distance":466.29058404645184,"distanceTotal":146916.59458404646},"belongsTo":92},{"name":"WR091","description":" 3/10 mile E of PCT mile 91.2.","id":100,"waypoint":{"latitude":"33.168451","longitude":"-116.540106","elevation":3421.2598425196848,"distance":177.1751},"type":"water","label":"3rd gate water cache location","anchorPoint":{"latitude":33.16905559906443,"longitude":-116.54191408956554,"elevation":3606.737322319399,"distance":928.391663250688,"distanceTotal":147378.6956632507},"belongsTo":92},{"name":"WR091B","description":" 6/10 mile E of PCT mile 91.2.","id":101,"waypoint":{"latitude":"33.171674","longitude":"-116.538184","elevation":3352.6902887139104,"distance":306.6474},"type":"water","label":"Underground cistern","anchorPoint":{"latitude":33.17148353071823,"longitude":-116.5414699242498,"elevation":3656.89315825781,"distance":1196.4925877788337,"distanceTotal":147646.79658777884},"belongsTo":92},{"name":"CS091","description":" possible shade from bushes junction with trail to water cache and underground water cistern E of the PCT.","id":102,"waypoint":{"latitude":"33.167005","longitude":"-116.543478","elevation":3550.1968503937005,"distance":3.358},"type":"camp","label":"Several small campsites 100 ft N of the 3rd gate","anchorPoint":{"latitude":33.167035103092786,"longitude":-116.54345280623843,"elevation":3550.046727902073,"distance":466.29058404645184,"distanceTotal":146916.59458404646},"belongsTo":92},{"name":"BV0092","description":"","id":103,"waypoint":{"latitude":"33.173164","longitude":"-116.549837","elevation":3837.9265091863513,"distance":2.3344},"type":"unknown","label":"Small bivy campsite.","anchorPoint":{"latitude":33.17314694812404,"longitude":-116.54979838022646,"elevation":3836.667621808268,"distance":771.5436393144191,"distanceTotal":148831.19163931443},"belongsTo":93},{"name":"CS0093","description":"","id":104,"waypoint":{"latitude":"33.180503","longitude":"-116.549393","elevation":4035.7611548556424,"distance":6.6627},"type":"camp","label":"Small campsite","anchorPoint":{"latitude":33.18043669550603,"longitude":-116.54947506766533,"elevation":4038.87979593224,"distance":470.67051363984797,"distanceTotal":150139.66251363984},"belongsTo":94},{"name":"GT0094","description":" 4th gate N of Highway 78.","id":105,"waypoint":{"latitude":"33.175964","longitude":"-116.551645","elevation":4140.748031496062,"distance":14.6994},"type":"gate","label":"Pipe gate","anchorPoint":{"latitude":33.1758851173762,"longitude":-116.55153557360724,"elevation":4132.8981506020045,"distance":1344.391303116739,"distanceTotal":151013.38330311675},"belongsTo":94},{"name":"CS0094","description":" may be hidden from trail by brush.","id":106,"waypoint":{"latitude":"33.180832","longitude":"-116.558186","elevation":4296.259842519685,"distance":14.5703},"type":"camp","label":"Several small campsites on small ridge","anchorPoint":{"latitude":33.1809362129665,"longitude":-116.55809321412639,"elevation":4301.277110712137,"distance":719.43407637786,"distanceTotal":151997.77007637787},"belongsTo":95},{"name":"BV0095","description":"","id":107,"waypoint":{"latitude":"33.186098","longitude":"-116.562480","elevation":4268.044619422572,"distance":3.2285},"type":"unknown","label":"Small bivy campsite.","anchorPoint":{"latitude":33.186095405144606,"longitude":-116.56247479365535,"elevation":4266.586180620217,"distance":237.69398715859148,"distanceTotal":153125.3739871586},"belongsTo":96},{"name":"BV0096","description":"","id":108,"waypoint":{"latitude":"33.193713","longitude":"-116.565387","elevation":4400.918635170604,"distance":4.5493},"type":"unknown","label":"Small bivy campsite.","anchorPoint":{"latitude":33.19368010583008,"longitude":-116.56530427269546,"elevation":4399.090420119468,"distance":1472.5814453890803,"distanceTotal":154360.26144538907},"belongsTo":96},{"name":"BGCave","description":" very small cave W side of trail.","id":109,"waypoint":{"latitude":"33.194405","longitude":"-116.563323","elevation":4359.5800524934375,"distance":4.7331},"type":"unknown","label":"Billy Goat's cave","anchorPoint":{"latitude":33.19440153366116,"longitude":-116.56334210363086,"elevation":4359.2483801966855,"distance":121.29361378511533,"distanceTotal":154618.31761378513},"belongsTo":97},{"name":"RanchitaView","description":"","id":110,"waypoint":{"latitude":"33.196021","longitude":"-116.561126","elevation":4350.7217847769025,"distance":9.8204},"type":"unknown","label":"The small community of Ranchita can be seen 3 miles to the NE.","anchorPoint":{"latitude":33.19603617837328,"longitude":-116.56112156426126,"elevation":4347.429613113632,"distance":616.2820182850174,"distanceTotal":155113.30601828502},"belongsTo":97},{"name":"GT0101","description":" 5th gate N of Hwy 78.","id":111,"waypoint":{"latitude":"33.211540","longitude":"-116.581909","elevation":3667.322834645669,"distance":7.7715},"type":"gate","label":"Pipe gate","anchorPoint":{"latitude":33.211488245539606,"longitude":-116.58192964034622,"elevation":3673.483769206938,"distance":648.1452012898226,"distanceTotal":161582.54520128982},"belongsTo":101},{"name":"GT0101B","description":" 6th gate N of Hwy 78.","id":112,"waypoint":{"latitude":"33.211605","longitude":"-116.582558","elevation":3664.6981627296586,"distance":4.2926},"type":"unknown","label":"Pipe gate","anchorPoint":{"latitude":33.211587222145496,"longitude":-116.58262025495364,"elevation":3658.96306197086,"distance":785.3069902516672,"distanceTotal":161719.70699025167},"belongsTo":101},{"name":"GT0101C","description":" 7th gate N of Highway 78.","id":113,"waypoint":{"latitude":"33.211582","longitude":"-116.582782","elevation":3640.09186351706,"distance":7.7641},"type":"unknown","label":"Pipe gate","anchorPoint":{"latitude":33.21161867556354,"longitude":-116.58269830602804,"elevation":3649.3698764844567,"distance":815.7263739122703,"distanceTotal":161750.12637391227},"belongsTo":101},{"name":"WRCS101","description":" trough shade and campsites. Watch for Poison Oak.<br/><br/>WATER ALERT: Next southbound water after Barrel Spring may be the Rodriguez fire tank in 32.7 miles. Check the <a href=\"http://pctwater.com \" target=\"_blank\">pctwater.com </a>for current information.","id":114,"waypoint":{"latitude":"33.215517","longitude":"-116.588104","elevation":3481.6272965879266,"distance":8.1156},"type":"water, camp","label":"Barrel Spring","anchorPoint":{"latitude":33.215555011424875,"longitude":-116.58801987791256,"elevation":3480.063554515267,"distance":42.68357885556179,"distanceTotal":162586.42757885557},"belongsTo":102},{"name":"RD0101","description":" Montezuma Valley Rd paved.","id":115,"waypoint":{"latitude":"33.216818","longitude":"-116.587944","elevation":3453.4120734908133,"distance":17.6009},"type":"road","label":"Road S22","anchorPoint":{"latitude":33.21676217676066,"longitude":-116.58796134397058,"elevation":3456.60093430268,"distance":201.56906085364028,"distanceTotal":162745.31306085366},"belongsTo":102},{"name":"WR104","description":" 2/10 mile E of PCT.","id":116,"waypoint":{"latitude":"33.236036","longitude":"-116.596607","elevation":3390.4199475065616,"distance":217.0003},"type":"water","label":"Spring-fed cattle trough","anchorPoint":{"latitude":33.23612370589215,"longitude":-116.5991985575775,"elevation":3290.5925342478,"distance":1494.77497174501,"distanceTotal":167257.206971745},"belongsTo":104},{"name":"WR105","description":" 2/10 mile W of PCT.","id":117,"waypoint":{"latitude":"33.241161","longitude":"-116.603103","elevation":3292.6509186351705,"distance":247.1941},"type":"water","label":"Round concrete trough","anchorPoint":{"latitude":33.242036931931736,"longitude":-116.60065968483232,"elevation":3330.908384074126,"distance":626.0148766776279,"distanceTotal":167997.79087667764},"belongsTo":105},{"name":"WRCS105B","description":"","id":118,"waypoint":{"latitude":"33.248098","longitude":"-116.600006","elevation":3354.3307086614172,"distance":3.7177},"type":"water, camp","label":"San Ysidro Creek","anchorPoint":{"latitude":33.24809422403316,"longitude":-116.60000556713693,"elevation":3354.140388091879,"distance":1526.5363124849998,"distanceTotal":168898.312312485},"belongsTo":105},{"name":"WR106B","description":" two cattle troughs 2/10 mi S of PCT.","id":119,"waypoint":{"latitude":"33.251003","longitude":"-116.612268","elevation":3392.7165354330705,"distance":359.5189},"type":"water","label":"Large metal water tank","anchorPoint":{"latitude":33.25385138316694,"longitude":-116.61412050455007,"elevation":3401.7409656897344,"distance":555.9461094007951,"distanceTotal":171146.4101094008},"belongsTo":107},{"name":"EagleRock","description":"","id":120,"waypoint":{"latitude":"33.254761","longitude":"-116.611588","elevation":3524.278215223097,"distance":53.454},"type":"unknown","label":"Eagle Rock","anchorPoint":{"latitude":33.254568984880514,"longitude":-116.61240882640587,"elevation":3486.4579209966296,"distance":341.7558307832487,"distanceTotal":170932.21983078326},"belongsTo":107},{"name":"WR106","description":" 3/10 mile N of PCT.","id":121,"waypoint":{"latitude":"33.258414","longitude":"-116.612280","elevation":3529.8556430446197,"distance":343.3979},"type":"water","label":"Spring-fed metal trough","anchorPoint":{"latitude":33.25709070943143,"longitude":-116.61570219635105,"elevation":3436.31022284156,"distance":1024.0633100207888,"distanceTotal":171614.52731002079},"belongsTo":107},{"name":"WR108","description":"","id":122,"waypoint":{"latitude":"33.266300","longitude":"-116.626003","elevation":3334.6456692913384,"distance":20.0172},"type":"water","label":"Canada Verde","anchorPoint":{"latitude":33.266047845434684,"longitude":-116.62614156487753,"elevation":3357.8691202376367,"distance":1387.449260621457,"distanceTotal":173587.25726062147},"belongsTo":108},{"name":"CS0109","description":"","id":123,"waypoint":{"latitude":"33.269300","longitude":"-116.640857","elevation":3083.333333333333,"distance":23.0494},"type":"camp","label":"Large beach-like campsite","anchorPoint":{"latitude":33.26929682453084,"longitude":-116.64064787897064,"elevation":3088.0283180465035,"distance":-14.25283700298143,"distanceTotal":175404.243162997},"belongsTo":110},{"name":"GT0109","description":"","id":124,"waypoint":{"latitude":"33.270496","longitude":"-116.641684","elevation":3077.0997375328084,"distance":17.8122},"type":"gate","label":"Pipe gate","anchorPoint":{"latitude":33.270435996462545,"longitude":-116.64161458286375,"elevation":3074.9517050800087,"distance":212.4281606216217,"distanceTotal":175630.92416062162},"belongsTo":110},{"name":"GT0109B","description":"","id":125,"waypoint":{"latitude":"33.271267","longitude":"-116.642863","elevation":3063.9763779527557,"distance":41.1389},"type":"unknown","label":"Pipe gate","anchorPoint":{"latitude":33.2714040306311,"longitude":-116.64304508350973,"elevation":3062.006397735336,"distance":422.88948734199596,"distanceTotal":175841.38548734202},"belongsTo":110},{"name":"Hwy79","description":" first crossing small community of Warner Springs 1.2 miles NE.","id":126,"waypoint":{"latitude":"33.273455","longitude":"-116.644986","elevation":3045.2755905511813,"distance":6.875},"type":"highway, end","label":"Highway 79","anchorPoint":{"latitude":33.27343470196895,"longitude":-116.64496211729126,"elevation":3045.4080497931504,"distance":793.0685799593504,"distanceTotal":176211.56457995938},"belongsTo":110}],"calcLength":99.11316865753992,"scale":1.1047976922052518,"elevationRange":{"open":889.15,"high":1843.28,"low":686.29,"close":928.27},"miles":[{"id":1,"elevationRange":{"open":2917.1587926509183,"high":2917.6509186351705,"low":2661.942257217848,"close":2661.942257217848},"waypoints":[{"longitude":-116.466981,"latitude":32.589741,"elevation":2917.1587926509183,"distance":0,"distanceTotal":0,"nearestToPois":[0]},{"longitude":-116.467028,"latitude":32.589935,"elevation":2909.875328083989,"distance":41.4216274750054,"distanceTotal":41.4216274750054},{"longitude":-116.467185,"latitude":32.590052,"elevation":2899.573490813648,"distance":41.4216274750054,"distanceTotal":41.4216274750054},{"longitude":-116.46783,"latitude":32.590296,"elevation":2876.049868766404,"distance":119.57225422737443,"distanceTotal":119.57225422737443},{"longitude":-116.467875,"latitude":32.590604,"elevation":2867.4540682414695,"distance":164.1916081426987,"distanceTotal":164.1916081426987},{"longitude":-116.467677,"latitude":32.591089,"elevation":2855.314960629921,"distance":209.15201310560673,"distanceTotal":209.15201310560673},{"longitude":-116.467661,"latitude":32.591417,"elevation":2855.3805774278217,"distance":254.7103345795363,"distanceTotal":254.7103345795363},{"longitude":-116.467123,"latitude":32.591869,"elevation":2836.1220472440946,"distance":337.62937865123234,"distanceTotal":337.62937865123234},{"longitude":-116.467078,"latitude":32.593434,"elevation":2809.448818897638,"distance":521.2030051071338,"distanceTotal":521.2030051071338},{"longitude":-116.466723,"latitude":32.594004,"elevation":2801.870078740157,"distance":608.7264040408646,"distanceTotal":608.7264040408646},{"longitude":-116.466729,"latitude":32.595078,"elevation":2774.4422572178473,"distance":744.8958130387,"distanceTotal":744.8958130387},{"longitude":-116.46663,"latitude":32.595242,"elevation":2771.9160104986877,"distance":744.8958130387,"distanceTotal":744.8958130387},{"longitude":-116.466714,"latitude":32.595544,"elevation":2759.809711286089,"distance":788.1336174399216,"distanceTotal":788.1336174399216},{"longitude":-116.466713,"latitude":32.597496,"elevation":2699.737532808399,"distance":1017.5241985094979,"distanceTotal":1017.5241985094979},{"longitude":-116.466833,"latitude":32.597577,"elevation":2698.622047244094,"distance":1052.7251520987722,"distanceTotal":1052.7251520987722},{"longitude":-116.467476,"latitude":32.597648,"elevation":2697.53937007874,"distance":1091.6711489050842,"distanceTotal":1091.6711489050842},{"longitude":-116.467967,"latitude":32.597806,"elevation":2701.5748031496064,"distance":1169.2599860309667,"distanceTotal":1169.2599860309667},{"longitude":-116.468266,"latitude":32.597768,"elevation":2702.7887139107606,"distance":1208.094950669212,"distanceTotal":1208.094950669212},{"longitude":-116.468682,"latitude":32.597554,"elevation":2706.266404199475,"distance":1247.573570442936,"distanceTotal":1247.573570442936},{"longitude":-116.468848,"latitude":32.597545,"elevation":2709.1863517060365,"distance":1247.573570442936,"distanceTotal":1247.573570442936},{"longitude":-116.46946,"latitude":32.59878,"elevation":2689.7965879265093,"distance":1418.7355681852962,"distanceTotal":1418.7355681852962},{"longitude":-116.46975,"latitude":32.599137,"elevation":2685.498687664042,"distance":1461.9711629911333,"distanceTotal":1461.9711629911333},{"longitude":-116.469697,"latitude":32.599446,"elevation":2678.772965879265,"distance":1505.6039325673182,"distanceTotal":1505.6039325673182},{"longitude":-116.469777,"latitude":32.599846,"elevation":2674.081364829396,"distance":1551.2392584403945,"distanceTotal":1551.2392584403945},{"longitude":-116.469983,"latitude":32.600064,"elevation":2670.9317585301837,"distance":1593.6454816186933,"distanceTotal":1593.6454816186933},{"longitude":-116.470134,"latitude":32.600774,"elevation":2661.942257217848,"distance":1682.5877722285234,"distanceTotal":1682.5877722285234}],"elevationGain":12,"elevationLoss":267,"scale":1.1047976922052518,"centerpoint":{"latitude":"32.595375","longitude":"-116.467955"},"isCurrent":false,"hasMajorPoi":true,"hasMinorPoi":false,"poiTypes":{"end":true},"pois":[0]},{"id":2,"elevationRange":{"open":2670.9317585301837,"high":2673.6548556430444,"low":2545.9317585301837,"close":2582.742782152231},"waypoints":[{"longitude":-116.469983,"latitude":32.600064,"elevation":2670.9317585301837,"distance":-15.698518381306712,"distanceTotal":1593.6454816186933},{"longitude":-116.470134,"latitude":32.600774,"elevation":2661.942257217848,"distance":73.24377222852331,"distanceTotal":1682.5877722285234},{"longitude":-116.470418,"latitude":32.600959,"elevation":2673.6548556430444,"distance":108.09174295513822,"distanceTotal":1717.4357429551383},{"longitude":-116.470253,"latitude":32.601266,"elevation":2671.587926509186,"distance":151.1062677427651,"distanceTotal":1760.4502677427652},{"longitude":-116.470347,"latitude":32.601714,"elevation":2659.809711286089,"distance":195.34291973750965,"distanceTotal":1804.6869197375097},{"longitude":-116.470216,"latitude":32.601887,"elevation":2654.429133858268,"distance":195.34291973750965,"distanceTotal":1804.6869197375097},{"longitude":-116.47042,"latitude":32.602157,"elevation":2659.1863517060365,"distance":231.9780112110359,"distanceTotal":1841.322011211036},{"longitude":-116.470279,"latitude":32.602264,"elevation":2643.6679790026246,"distance":263.60969489610284,"distanceTotal":1872.953694896103},{"longitude":-116.470393,"latitude":32.60237,"elevation":2647.998687664042,"distance":263.60969489610284,"distanceTotal":1872.953694896103},{"longitude":-116.470443,"latitude":32.602693,"elevation":2635.826771653543,"distance":306.93334207800876,"distanceTotal":1916.2773420780088},{"longitude":-116.470329,"latitude":32.602828,"elevation":2631.496062992126,"distance":349.4613139619885,"distanceTotal":1958.8053139619885},{"longitude":-116.470294,"latitude":32.603175,"elevation":2625.2624671916005,"distance":394.7717188337872,"distanceTotal":2004.1157188337872,"nearestToPois":[1,2]},{"longitude":-116.470466,"latitude":32.603955,"elevation":2612.8608923884512,"distance":484.86995926897134,"distanceTotal":2094.2139592689714},{"longitude":-116.471361,"latitude":32.605308,"elevation":2586.1548556430444,"distance":660.340336571624,"distanceTotal":2269.684336571624,"nearestToPois":[3,4]},{"longitude":-116.472378,"latitude":32.605683,"elevation":2595.6364829396325,"distance":779.1248700444557,"distanceTotal":2388.468870044456},{"longitude":-116.472792,"latitude":32.605665,"elevation":2603.3792650918635,"distance":817.9582879659324,"distanceTotal":2427.3022879659325},{"longitude":-116.473373,"latitude":32.606236,"elevation":2599.7047244094488,"distance":902.8777892189046,"distanceTotal":2512.2217892189046},{"longitude":-116.473958,"latitude":32.606614,"elevation":2616.3057742782153,"distance":985.0944029178968,"distanceTotal":2594.438402917897},{"longitude":-116.474155,"latitude":32.606627,"elevation":2616.4370078740158,"distance":1022.3886166945927,"distanceTotal":2631.7326166945927},{"longitude":-116.474268,"latitude":32.606751,"elevation":2610.1377952755906,"distance":1022.3886166945927,"distanceTotal":2631.7326166945927,"nearestToPois":[5]},{"longitude":-116.474636,"latitude":32.606699,"elevation":2615.354330708661,"distance":1061.2695409168336,"distanceTotal":2670.6135409168337},{"longitude":-116.475002,"latitude":32.606783,"elevation":2616.732283464567,"distance":1100.502011764734,"distanceTotal":2709.846011764734},{"longitude":-116.475345,"latitude":32.606506,"elevation":2624.278215223097,"distance":1142.266016044554,"distanceTotal":2751.610016044554},{"longitude":-116.475998,"latitude":32.606335,"elevation":2615.6824146981626,"distance":1220.7078674685881,"distanceTotal":2830.051867468588},{"longitude":-116.476621,"latitude":32.605853,"elevation":2638.6811023622045,"distance":1303.9666368306375,"distanceTotal":2913.3106368306376},{"longitude":-116.476989,"latitude":32.605807,"elevation":2631.266404199475,"distance":1342.6163268958999,"distanceTotal":2951.9603268959},{"longitude":-116.477112,"latitude":32.605708,"elevation":2623.3267716535433,"distance":1378.4790543028053,"distanceTotal":2987.8230543028053},{"longitude":-116.477288,"latitude":32.605742,"elevation":2618.6351706036744,"distance":1378.4790543028053,"distanceTotal":2987.8230543028053},{"longitude":-116.477626,"latitude":32.605521,"elevation":2606.922572178478,"distance":1419.5672538343033,"distanceTotal":3028.9112538343034},{"longitude":-116.477783,"latitude":32.60557,"elevation":2602.4606299212596,"distance":1419.5672538343033,"distanceTotal":3028.9112538343034},{"longitude":-116.478152,"latitude":32.605066,"elevation":2582.742782152231,"distance":1495.9856682850632,"distanceTotal":3105.3296682850632},{"longitude":-116.47854,"latitude":32.605674,"elevation":2555.11811023622,"distance":1574.2011466619651,"distanceTotal":3183.545146661965},{"longitude":-116.478793,"latitude":32.605743,"elevation":2551.476377952756,"distance":1601.542238029584,"distanceTotal":3210.886238029584},{"longitude":-116.478782,"latitude":32.605598,"elevation":2561.8438320209975,"distance":1601.542238029584,"distanceTotal":3210.886238029584},{"longitude":-116.47918,"latitude":32.605178,"elevation":2582.742782152231,"distance":1685.8723297137644,"distanceTotal":3295.2163297137645}],"elevationGain":123,"elevationLoss":202,"scale":1.1047976922052518,"centerpoint":{"latitude":"32.604479","longitude":"-116.473832"},"isCurrent":false,"hasMajorPoi":true,"hasMinorPoi":true,"poiTypes":{"water":true,"road":true,"postoffice":true,"unknown":true},"pois":[1,2,3,4,5]},{"id":3,"elevationRange":{"open":2561.8438320209975,"high":2582.742782152231,"low":2401.9028871391074,"close":2467.6837270341207},"waypoints":[{"longitude":-116.478782,"latitude":32.605598,"elevation":2561.8438320209975,"distance":-7.80176197041601,"distanceTotal":3210.886238029584},{"longitude":-116.47918,"latitude":32.605178,"elevation":2582.742782152231,"distance":76.52832971376438,"distanceTotal":3295.2163297137645},{"longitude":-116.479391,"latitude":32.604627,"elevation":2582.3162729658793,"distance":121.58739311058616,"distanceTotal":3340.2753931105863},{"longitude":-116.479939,"latitude":32.604643,"elevation":2562.4671916010498,"distance":193.06846667488162,"distanceTotal":3411.7564666748817},{"longitude":-116.48013,"latitude":32.604777,"elevation":2558.1036745406823,"distance":193.06846667488162,"distanceTotal":3411.7564666748817},{"longitude":-116.480392,"latitude":32.604636,"elevation":2553.018372703412,"distance":226.5810684309281,"distanceTotal":3445.269068430928},{"longitude":-116.48075,"latitude":32.60465,"elevation":2539.468503937008,"distance":264.6842150778566,"distanceTotal":3483.3722150778567},{"longitude":-116.480962,"latitude":32.604703,"elevation":2531.4304461942256,"distance":303.6652339710113,"distanceTotal":3522.3532339710114},{"longitude":-116.482289,"latitude":32.605526,"elevation":2487.959317585302,"distance":465.0361831257401,"distanceTotal":3683.72418312574},{"longitude":-116.482772,"latitude":32.605346,"elevation":2475.196850393701,"distance":504.81287731682096,"distanceTotal":3723.500877316821},{"longitude":-116.483253,"latitude":32.60549,"elevation":2467.1259842519685,"distance":581.9276457529786,"distanceTotal":3800.6156457529787,"nearestToPois":[6]},{"longitude":-116.48353,"latitude":32.60566,"elevation":2472.47375328084,"distance":581.9276457529786,"distanceTotal":3800.6156457529787},{"longitude":-116.483252,"latitude":32.605719,"elevation":2479.002624671916,"distance":598.951915311246,"distanceTotal":3817.639915311246},{"longitude":-116.483232,"latitude":32.606064,"elevation":2490.255905511811,"distance":638.1300301126903,"distanceTotal":3856.8180301126904},{"longitude":-116.483015,"latitude":32.606275,"elevation":2487.5328083989502,"distance":679.8549245542058,"distanceTotal":3898.542924554206},{"longitude":-116.482927,"latitude":32.606571,"elevation":2487.4343832020995,"distance":724.5694015508288,"distanceTotal":3943.257401550829},{"longitude":-116.483092,"latitude":32.607351,"elevation":2478.051181102362,"distance":814.083314486606,"distanceTotal":4032.771314486606},{"longitude":-116.483455,"latitude":32.60754,"elevation":2471.9160104986877,"distance":854.4189258301735,"distanceTotal":4073.1069258301736},{"longitude":-116.48375,"latitude":32.607375,"elevation":2459.087926509186,"distance":893.85048122221,"distanceTotal":4112.53848122221},{"longitude":-116.484014,"latitude":32.607418,"elevation":2452.6574803149606,"distance":929.1820218987032,"distanceTotal":4147.870021898703},{"longitude":-116.484172,"latitude":32.607271,"elevation":2450.0984251968503,"distance":929.1820218987032,"distanceTotal":4147.870021898703},{"longitude":-116.484631,"latitude":32.607357,"elevation":2434.6456692913384,"distance":965.5583697527154,"distanceTotal":4184.2463697527155},{"longitude":-116.484706,"latitude":32.607271,"elevation":2434.0223097112857,"distance":996.7890118755113,"distanceTotal":4215.477011875511},{"longitude":-116.484724,"latitude":32.606939,"elevation":2430.839895013123,"distance":1036.6925368416578,"distanceTotal":4255.380536841658},{"longitude":-116.485332,"latitude":32.606579,"elevation":2406.5944881889764,"distance":1108.4355579387748,"distanceTotal":4327.123557938775},{"longitude":-116.485446,"latitude":32.606616,"elevation":2402.132545931758,"distance":1108.4355579387748,"distanceTotal":4327.123557938775},{"longitude":-116.48558,"latitude":32.60703,"elevation":2401.9028871391074,"distance":1153.4869982315195,"distanceTotal":4372.17499823152},{"longitude":-116.48607,"latitude":32.607039,"elevation":2421.292650918635,"distance":1192.3390872339942,"distanceTotal":4411.027087233994},{"longitude":-116.486334,"latitude":32.606915,"elevation":2420.3740157480315,"distance":1230.9996043166411,"distanceTotal":4449.687604316641},{"longitude":-116.486874,"latitude":32.606323,"elevation":2417.979002624672,"distance":1316.2284489234298,"distanceTotal":4534.91644892343},{"longitude":-116.487269,"latitude":32.606081,"elevation":2427.3622047244094,"distance":1357.2520177899332,"distanceTotal":4575.940017789933},{"longitude":-116.488197,"latitude":32.606266,"elevation":2439.6981627296586,"distance":1471.837657153771,"distanceTotal":4690.525657153771},{"longitude":-116.488393,"latitude":32.606405,"elevation":2441.732283464567,"distance":1511.6142408650821,"distanceTotal":4730.302240865082},{"longitude":-116.48844,"latitude":32.606951,"elevation":2452.4278215223094,"distance":1557.4652232476765,"distanceTotal":4776.153223247677},{"longitude":-116.488861,"latitude":32.607009,"elevation":2457.250656167979,"distance":1594.2271454962683,"distanceTotal":4812.915145496268},{"longitude":-116.489242,"latitude":32.607255,"elevation":2467.6837270341207,"distance":1634.0186439764248,"distanceTotal":4852.706643976425}],"elevationGain":92,"elevationLoss":207,"scale":1.1047976922052518,"centerpoint":{"latitude":"32.606235","longitude":"-116.483955"},"isCurrent":false,"hasMajorPoi":true,"hasMinorPoi":false,"poiTypes":{"highway":true},"pois":[6]},{"id":4,"elevationRange":{"open":2457.250656167979,"high":2535.6627296587926,"low":2450.2952755905512,"close":2450.2952755905512},"waypoints":[{"longitude":-116.488861,"latitude":32.607009,"elevation":2457.250656167979,"distance":-15.116854503731702,"distanceTotal":4812.915145496268},{"longitude":-116.489242,"latitude":32.607255,"elevation":2467.6837270341207,"distance":24.674643976424704,"distanceTotal":4852.706643976425,"nearestToPois":[7]},{"longitude":-116.489613,"latitude":32.607632,"elevation":2478.6089238845143,"distance":107.80238433217892,"distanceTotal":4935.834384332179},{"longitude":-116.489903,"latitude":32.60773,"elevation":2478.379265091863,"distance":147.5533367370317,"distanceTotal":4975.585336737032},{"longitude":-116.490421,"latitude":32.608099,"elevation":2490.8464566929133,"distance":188.91000210773473,"distanceTotal":5016.942002107735},{"longitude":-116.490566,"latitude":32.607925,"elevation":2494.4225721784774,"distance":217.89591627950813,"distanceTotal":5045.927916279508},{"longitude":-116.490769,"latitude":32.608269,"elevation":2500.8530183727034,"distance":262.0818580601799,"distanceTotal":5090.11385806018},{"longitude":-116.490938,"latitude":32.608311,"elevation":2498.1627296587926,"distance":313.7154620435458,"distanceTotal":5141.747462043546},{"longitude":-116.491102,"latitude":32.60861,"elevation":2500.9514435695537,"distance":300.4233095693171,"distanceTotal":5128.455309569317},{"longitude":-116.491098,"latitude":32.608309,"elevation":2504.5931758530182,"distance":313.7154620435458,"distanceTotal":5141.747462043546},{"longitude":-116.490886,"latitude":32.607747,"elevation":2510.5643044619424,"distance":396.80110960722686,"distanceTotal":5224.833109607227},{"longitude":-116.491031,"latitude":32.607691,"elevation":2509.3175853018374,"distance":396.80110960722686,"distanceTotal":5224.833109607227},{"longitude":-116.490975,"latitude":32.607504,"elevation":2510.6627296587926,"distance":430.902237093911,"distanceTotal":5258.934237093911},{"longitude":-116.491202,"latitude":32.607378,"elevation":2513.779527559055,"distance":430.902237093911,"distanceTotal":5258.934237093911},{"longitude":-116.491633,"latitude":32.607325,"elevation":2515.5839895013123,"distance":490.55490464638024,"distanceTotal":5318.58690464638},{"longitude":-116.491486,"latitude":32.607168,"elevation":2515.551181102362,"distance":490.55490464638024,"distanceTotal":5318.58690464638},{"longitude":-116.491544,"latitude":32.607039,"elevation":2519.1929133858266,"distance":532.1415888966003,"distanceTotal":5360.1735888966},{"longitude":-116.491477,"latitude":32.606803,"elevation":2518.602362204724,"distance":532.1415888966003,"distanceTotal":5360.1735888966},{"longitude":-116.491625,"latitude":32.606703,"elevation":2521.3582677165355,"distance":571.231761801745,"distanceTotal":5399.263761801745},{"longitude":-116.491724,"latitude":32.606405,"elevation":2521.5551181102364,"distance":608.2081252823937,"distanceTotal":5436.240125282394},{"longitude":-116.49184,"latitude":32.6064,"elevation":2524.9671916010498,"distance":608.2081252823937,"distanceTotal":5436.240125282394},{"longitude":-116.491893,"latitude":32.606275,"elevation":2522.7034120734907,"distance":608.2081252823937,"distanceTotal":5436.240125282394},{"longitude":-116.492045,"latitude":32.60621,"elevation":2524.7375328083986,"distance":646.4125818776974,"distanceTotal":5474.444581877698},{"longitude":-116.492485,"latitude":32.606103,"elevation":2525.8530183727034,"distance":684.8495983872099,"distanceTotal":5512.88159838721},{"longitude":-116.492598,"latitude":32.606132,"elevation":2526.1154855643044,"distance":684.8495983872099,"distanceTotal":5512.88159838721},{"longitude":-116.492738,"latitude":32.606007,"elevation":2528.149606299213,"distance":720.2947122664627,"distanceTotal":5548.326712266463},{"longitude":-116.492907,"latitude":32.606031,"elevation":2530.5118110236217,"distance":720.2947122664627,"distanceTotal":5548.326712266463},{"longitude":-116.493018,"latitude":32.605913,"elevation":2526.7060367454064,"distance":743.0759721190425,"distanceTotal":5571.107972119043},{"longitude":-116.492458,"latitude":32.605646,"elevation":2524.278215223097,"distance":783.3248568437712,"distanceTotal":5611.356856843771},{"longitude":-116.492328,"latitude":32.605492,"elevation":2525.787401574803,"distance":822.698189397428,"distanceTotal":5650.730189397428},{"longitude":-116.492375,"latitude":32.605232,"elevation":2530.8727034120734,"distance":822.698189397428,"distanceTotal":5650.730189397428},{"longitude":-116.492572,"latitude":32.605205,"elevation":2533.0380577427823,"distance":856.9143263238711,"distanceTotal":5684.946326323871},{"longitude":-116.492654,"latitude":32.605091,"elevation":2534.612860892388,"distance":856.9143263238711,"distanceTotal":5684.946326323871},{"longitude":-116.492981,"latitude":32.604966,"elevation":2534.3832020997374,"distance":896.3493065887533,"distanceTotal":5724.381306588753},{"longitude":-116.493309,"latitude":32.604933,"elevation":2535.6627296587926,"distance":935.15433120954,"distanceTotal":5763.18633120954},{"longitude":-116.493873,"latitude":32.605042,"elevation":2531.003937007874,"distance":1012.2437997785455,"distanceTotal":5840.275799778546},{"longitude":-116.494025,"latitude":32.605013,"elevation":2528.149606299213,"distance":1012.2437997785455,"distanceTotal":5840.275799778546},{"longitude":-116.494164,"latitude":32.605226,"elevation":2530.6102362204724,"distance":1050.549345362686,"distanceTotal":5878.581345362686},{"longitude":-116.49433,"latitude":32.605269,"elevation":2529.8884514435695,"distance":1050.549345362686,"distanceTotal":5878.581345362686},{"longitude":-116.494608,"latitude":32.605267,"elevation":2527.034120734908,"distance":1089.0140922942728,"distanceTotal":5917.046092294273},{"longitude":-116.494766,"latitude":32.605113,"elevation":2523.786089238845,"distance":1117.5405211058587,"distanceTotal":5945.572521105859},{"longitude":-116.49488,"latitude":32.605209,"elevation":2521.2598425196848,"distance":1117.5405211058587,"distanceTotal":5945.572521105859},{"longitude":-116.494905,"latitude":32.60539,"elevation":2517.6509186351705,"distance":1117.5405211058587,"distanceTotal":5945.572521105859},{"longitude":-116.495245,"latitude":32.60522,"elevation":2513.7139107611547,"distance":1140.9195869896903,"distanceTotal":5968.95158698969},{"longitude":-116.49535,"latitude":32.60508,"elevation":2511.9094488188975,"distance":1179.6989803040178,"distanceTotal":6007.730980304018},{"longitude":-116.495581,"latitude":32.605239,"elevation":2511.942257217848,"distance":1215.0294161828187,"distanceTotal":6043.061416182819},{"longitude":-116.495415,"latitude":32.605603,"elevation":2516.1745406824143,"distance":1245.4820597707649,"distanceTotal":6073.514059770765},{"longitude":-116.496154,"latitude":32.605506,"elevation":2510.236220472441,"distance":1321.0786152182936,"distanceTotal":6149.110615218294},{"longitude":-116.496369,"latitude":32.605675,"elevation":2508.8254593175852,"distance":1321.0786152182936,"distanceTotal":6149.110615218294},{"longitude":-116.496253,"latitude":32.60595,"elevation":2505.1837270341207,"distance":1357.3324410082396,"distanceTotal":6185.36444100824},{"longitude":-116.4965,"latitude":32.60602,"elevation":2498.556430446194,"distance":1387.865513868178,"distanceTotal":6215.897513868178},{"longitude":-116.496771,"latitude":32.606004,"elevation":2495.308398950131,"distance":1425.2935186453997,"distanceTotal":6253.3255186454},{"longitude":-116.496935,"latitude":32.605853,"elevation":2490.5839895013123,"distance":1425.2935186453997,"distanceTotal":6253.3255186454},{"longitude":-116.496969,"latitude":32.605703,"elevation":2487.237532808399,"distance":1462.8900050706834,"distanceTotal":6290.922005070684},{"longitude":-116.497167,"latitude":32.60567,"elevation":2481.8569553805773,"distance":1462.8900050706834,"distanceTotal":6290.922005070684},{"longitude":-116.497294,"latitude":32.605765,"elevation":2484.514435695538,"distance":1499.4170473299118,"distanceTotal":6327.449047329912},{"longitude":-116.497418,"latitude":32.606089,"elevation":2477.9199475065616,"distance":1528.1628889631702,"distanceTotal":6356.19488896317},{"longitude":-116.497642,"latitude":32.605993,"elevation":2469.455380577428,"distance":1528.1628889631702,"distanceTotal":6356.19488896317},{"longitude":-116.497738,"latitude":32.606045,"elevation":2466.4041994750655,"distance":1528.1628889631702,"distanceTotal":6356.19488896317},{"longitude":-116.497717,"latitude":32.606414,"elevation":2462.8937007874015,"distance":1598.0710620530726,"distanceTotal":6426.103062053073},{"longitude":-116.498034,"latitude":32.606685,"elevation":2450.2952755905512,"distance":1638.2295743265795,"distanceTotal":6466.26157432658}],"elevationGain":91,"elevationLoss":108,"scale":1.1047976922052518,"centerpoint":{"latitude":"32.606272","longitude":"-116.493449"},"isCurrent":false,"hasMajorPoi":false,"hasMinorPoi":true,"poiTypes":{"railroad":true},"pois":[7]},{"id":5,"elevationRange":{"open":2462.8937007874015,"high":2552.49343832021,"low":2369.8818897637793,"close":2552.49343832021},"waypoints":[{"longitude":-116.497717,"latitude":32.606414,"elevation":2462.8937007874015,"distance":-11.272937946927414,"distanceTotal":6426.103062053073},{"longitude":-116.498034,"latitude":32.606685,"elevation":2450.2952755905512,"distance":28.885574326579444,"distanceTotal":6466.26157432658},{"longitude":-116.498029,"latitude":32.606885,"elevation":2454.8884514435695,"distance":28.885574326579444,"distanceTotal":6466.26157432658},{"longitude":-116.498246,"latitude":32.606781,"elevation":2454.757217847769,"distance":56.922577760517925,"distanceTotal":6494.298577760518},{"longitude":-116.498275,"latitude":32.60661,"elevation":2446.522309711286,"distance":56.922577760517925,"distanceTotal":6494.298577760518},{"longitude":-116.498428,"latitude":32.606505,"elevation":2443.799212598425,"distance":94.82719226215704,"distanceTotal":6532.203192262157},{"longitude":-116.498671,"latitude":32.606459,"elevation":2446.358267716535,"distance":94.82719226215704,"distanceTotal":6532.203192262157},{"longitude":-116.498772,"latitude":32.606764,"elevation":2435.761154855643,"distance":126.63188726582393,"distanceTotal":6564.007887265824},{"longitude":-116.499205,"latitude":32.60653,"elevation":2435.6627296587926,"distance":192.8745625725278,"distanceTotal":6630.250562572528},{"longitude":-116.499411,"latitude":32.606548,"elevation":2431.0695538057744,"distance":192.8745625725278,"distanceTotal":6630.250562572528},{"longitude":-116.499411,"latitude":32.606844,"elevation":2407.742782152231,"distance":232.13796775580977,"distanceTotal":6669.51396775581},{"longitude":-116.499169,"latitude":32.607076,"elevation":2397.1784776902887,"distance":274.4109523324287,"distanceTotal":6711.786952332429},{"longitude":-116.499095,"latitude":32.607282,"elevation":2387.6968503937005,"distance":274.4109523324287,"distanceTotal":6711.786952332429},{"longitude":-116.499002,"latitude":32.607994,"elevation":2374.1797900262463,"distance":365.54251004913294,"distanceTotal":6802.918510049133,"nearestToPois":[8]},{"longitude":-116.499186,"latitude":32.607921,"elevation":2381.824146981627,"distance":384.9014380905692,"distanceTotal":6822.277438090569},{"longitude":-116.499334,"latitude":32.607494,"elevation":2369.8818897637793,"distance":430.0969440023782,"distanceTotal":6867.472944002378},{"longitude":-116.499477,"latitude":32.607323,"elevation":2372.2112860892385,"distance":472.09361867617645,"distanceTotal":6909.469618676177},{"longitude":-116.500077,"latitude":32.606917,"elevation":2376.4763779527557,"distance":545.0706987954864,"distanceTotal":6982.446698795487},{"longitude":-116.500252,"latitude":32.607052,"elevation":2374.9343832020995,"distance":545.0706987954864,"distanceTotal":6982.446698795487},{"longitude":-116.500566,"latitude":32.60687,"elevation":2370.7349081364828,"distance":581.0192689830765,"distanceTotal":7018.395268983077},{"longitude":-116.500737,"latitude":32.607007,"elevation":2373.261154855643,"distance":617.2306705416413,"distanceTotal":7054.6066705416415},{"longitude":-116.50153,"latitude":32.607097,"elevation":2381.1679790026246,"distance":692.0166359223995,"distanceTotal":7129.3926359224},{"longitude":-116.501586,"latitude":32.607405,"elevation":2386.122047244094,"distance":726.76186046364,"distanceTotal":7164.13786046364,"nearestToPois":[9]},{"longitude":-116.501842,"latitude":32.607388,"elevation":2393.6351706036744,"distance":726.76186046364,"distanceTotal":7164.13786046364},{"longitude":-116.501922,"latitude":32.607464,"elevation":2396.292650918635,"distance":753.6556192456846,"distanceTotal":7191.031619245685},{"longitude":-116.501834,"latitude":32.607616,"elevation":2395.242782152231,"distance":753.6556192456846,"distanceTotal":7191.031619245685},{"longitude":-116.50203,"latitude":32.607691,"elevation":2403.051181102362,"distance":779.4860102489811,"distanceTotal":7216.862010248981},{"longitude":-116.501913,"latitude":32.6078,"elevation":2403.805774278215,"distance":779.4860102489811,"distanceTotal":7216.862010248981},{"longitude":-116.502009,"latitude":32.607937,"elevation":2409.4816272965877,"distance":809.626217049572,"distanceTotal":7247.002217049572},{"longitude":-116.502274,"latitude":32.607924,"elevation":2415.1246719160104,"distance":809.626217049572,"distanceTotal":7247.002217049572},{"longitude":-116.502311,"latitude":32.607705,"elevation":2411.3517060367453,"distance":842.0912496338697,"distanceTotal":7279.46724963387},{"longitude":-116.502497,"latitude":32.607757,"elevation":2414.271653543307,"distance":842.0912496338697,"distanceTotal":7279.46724963387,"nearestToPois":[10]},{"longitude":-116.503109,"latitude":32.607454,"elevation":2427.788713910761,"distance":919.0337801098121,"distanceTotal":7356.409780109812},{"longitude":-116.503565,"latitude":32.607618,"elevation":2442.0931758530182,"distance":990.0547054353037,"distanceTotal":7427.430705435304},{"longitude":-116.50369,"latitude":32.607512,"elevation":2445.8005249343832,"distance":990.0547054353037,"distanceTotal":7427.430705435304},{"longitude":-116.503863,"latitude":32.607509,"elevation":2453.6417322834645,"distance":990.0547054353037,"distanceTotal":7427.430705435304},{"longitude":-116.503888,"latitude":32.607726,"elevation":2457.972440944882,"distance":1022.4689173257602,"distanceTotal":7459.84491732576},{"longitude":-116.504084,"latitude":32.607902,"elevation":2466.076115485564,"distance":1064.1801122758925,"distanceTotal":7501.556112275893},{"longitude":-116.50412,"latitude":32.608057,"elevation":2470.209973753281,"distance":1064.1801122758925,"distanceTotal":7501.556112275893},{"longitude":-116.503988,"latitude":32.608211,"elevation":2474.179790026247,"distance":1106.062882307624,"distanceTotal":7543.438882307624},{"longitude":-116.503971,"latitude":32.608617,"elevation":2480.282152230971,"distance":1142.0030560327532,"distanceTotal":7579.379056032753},{"longitude":-116.504269,"latitude":32.608633,"elevation":2488.6154855643044,"distance":1180.4877998025695,"distanceTotal":7617.86379980257},{"longitude":-116.504471,"latitude":32.608732,"elevation":2495.505249343832,"distance":1180.4877998025695,"distanceTotal":7617.86379980257},{"longitude":-116.504367,"latitude":32.608814,"elevation":2496.522309711286,"distance":1180.4877998025695,"distanceTotal":7617.86379980257},{"longitude":-116.504427,"latitude":32.60908,"elevation":2504.8228346456694,"distance":1215.9562249131268,"distanceTotal":7653.332224913127},{"longitude":-116.504372,"latitude":32.609275,"elevation":2512.795275590551,"distance":1258.181261269904,"distanceTotal":7695.557261269904},{"longitude":-116.504053,"latitude":32.609539,"elevation":2518.4055118110236,"distance":1296.092173118389,"distanceTotal":7733.468173118389},{"longitude":-116.504129,"latitude":32.609635,"elevation":2522.2440944881887,"distance":1296.092173118389,"distanceTotal":7733.468173118389},{"longitude":-116.505025,"latitude":32.609142,"elevation":2533.6942257217847,"distance":1410.0427747687463,"distanceTotal":7847.4187747687465},{"longitude":-116.505289,"latitude":32.609206,"elevation":2543.011811023622,"distance":1446.9611363705535,"distanceTotal":7884.337136370554},{"longitude":-116.505418,"latitude":32.609147,"elevation":2540.485564304462,"distance":1446.9611363705535,"distanceTotal":7884.337136370554},{"longitude":-116.50576,"latitude":32.609305,"elevation":2535.826771653543,"distance":1486.5581904568826,"distanceTotal":7923.934190456883},{"longitude":-116.505952,"latitude":32.609624,"elevation":2545.1115485564305,"distance":1530.281663923597,"distanceTotal":7967.657663923597},{"longitude":-116.506082,"latitude":32.610081,"elevation":2546.1942257217847,"distance":1575.6121761133945,"distanceTotal":8012.988176113395},{"longitude":-116.506208,"latitude":32.609834,"elevation":2546.7191601049867,"distance":1597.456125603907,"distanceTotal":8034.832125603907},{"longitude":-116.50648,"latitude":32.609726,"elevation":2552.49343832021,"distance":1636.9527535800144,"distanceTotal":8074.328753580015}],"elevationGain":215,"elevationLoss":113,"scale":1.1047976922052518,"centerpoint":{"latitude":"32.607859","longitude":"-116.502025"},"isCurrent":false,"hasMajorPoi":true,"hasMinorPoi":true,"poiTypes":{"water":true,"camp":true,"gate":true},"pois":[8,9,10]},{"id":6,"elevationRange":{"open":2546.7191601049867,"high":2827.3622047244094,"low":2546.7191601049867,"close":2796.3910761154857},"waypoints":[{"longitude":-116.506208,"latitude":32.609834,"elevation":2546.7191601049867,"distance":-11.887874396093139,"distanceTotal":8034.832125603907},{"longitude":-116.50648,"latitude":32.609726,"elevation":2552.49343832021,"distance":27.60875358001431,"distanceTotal":8074.328753580015},{"longitude":-116.506613,"latitude":32.609564,"elevation":2556.463254593176,"distance":27.60875358001431,"distanceTotal":8074.328753580015},{"longitude":-116.506927,"latitude":32.608467,"elevation":2564.009186351706,"distance":215.32503994237686,"distanceTotal":8262.045039942377},{"longitude":-116.507202,"latitude":32.608236,"elevation":2574.9015748031497,"distance":204.05267860903678,"distanceTotal":8250.772678609037},{"longitude":-116.507001,"latitude":32.608492,"elevation":2582.2178477690286,"distance":215.32503994237686,"distanceTotal":8262.045039942377},{"longitude":-116.506938,"latitude":32.608886,"elevation":2587.073490813648,"distance":259.6078724806548,"distanceTotal":8306.327872480655},{"longitude":-116.507199,"latitude":32.60918,"elevation":2597.9658792650916,"distance":300.53256195370614,"distanceTotal":8347.252561953706},{"longitude":-116.507197,"latitude":32.609383,"elevation":2601.706036745407,"distance":341.51072363506046,"distanceTotal":8388.23072363506},{"longitude":-116.507027,"latitude":32.60955,"elevation":2600.1312335958005,"distance":384.3952137343158,"distanceTotal":8431.115213734316},{"longitude":-116.506737,"latitude":32.610157,"elevation":2618.2742782152227,"distance":429.0681503377118,"distanceTotal":8475.788150337712},{"longitude":-116.50659,"latitude":32.610149,"elevation":2619.3897637795276,"distance":464.6758904372555,"distanceTotal":8511.395890437256},{"longitude":-116.506488,"latitude":32.610269,"elevation":2623.9501312335956,"distance":464.6758904372555,"distanceTotal":8511.395890437256},{"longitude":-116.506225,"latitude":32.611092,"elevation":2638.9107611548557,"distance":554.5474263859987,"distanceTotal":8601.267426385999},{"longitude":-116.506203,"latitude":32.61154,"elevation":2653.313648293963,"distance":644.5536371734224,"distanceTotal":8691.273637173423},{"longitude":-116.506369,"latitude":32.611908,"elevation":2660.03937007874,"distance":687.2984808443825,"distanceTotal":8734.018480844383},{"longitude":-116.506548,"latitude":32.612031,"elevation":2668.438320209974,"distance":687.2984808443825,"distanceTotal":8734.018480844383},{"longitude":-116.506213,"latitude":32.612732,"elevation":2682.4146981627296,"distance":768.5175727070828,"distanceTotal":8815.237572707083},{"longitude":-116.506239,"latitude":32.612847,"elevation":2681.3976377952754,"distance":802.2900228803364,"distanceTotal":8849.010022880337},{"longitude":-116.506397,"latitude":32.612879,"elevation":2689.7965879265093,"distance":802.2900228803364,"distanceTotal":8849.010022880337},{"longitude":-116.506402,"latitude":32.613017,"elevation":2693.9304461942256,"distance":802.2900228803364,"distanceTotal":8849.010022880337},{"longitude":-116.506059,"latitude":32.613296,"elevation":2698.293963254593,"distance":873.8869897225441,"distanceTotal":8920.606989722544},{"longitude":-116.506108,"latitude":32.613461,"elevation":2708.267716535433,"distance":873.8869897225441,"distanceTotal":8920.606989722544},{"longitude":-116.506668,"latitude":32.61339,"elevation":2718.4055118110236,"distance":947.210092479053,"distanceTotal":8993.930092479053},{"longitude":-116.507144,"latitude":32.613419,"elevation":2736.9094488188975,"distance":983.7930375015067,"distanceTotal":9030.513037501507},{"longitude":-116.507163,"latitude":32.613643,"elevation":2743.7007874015744,"distance":1025.838544233301,"distanceTotal":9072.558544233301},{"longitude":-116.50753,"latitude":32.614006,"elevation":2767.4540682414695,"distance":1068.2350451919092,"distanceTotal":9114.95504519191},{"longitude":-116.507633,"latitude":32.614303,"elevation":2788.4842519685035,"distance":1113.4791622021758,"distanceTotal":9160.199162202176},{"longitude":-116.507682,"latitude":32.614579,"elevation":2802.49343832021,"distance":1154.9096280587191,"distanceTotal":9201.62962805872},{"longitude":-116.507555,"latitude":32.614738,"elevation":2808.202099737533,"distance":1154.9096280587191,"distanceTotal":9201.62962805872},{"longitude":-116.507469,"latitude":32.615141,"elevation":2813.4842519685035,"distance":1200.3318384569693,"distanceTotal":9247.05183845697},{"longitude":-116.507748,"latitude":32.615167,"elevation":2813.976377952756,"distance":1233.6261321890352,"distanceTotal":9280.346132189035},{"longitude":-116.508145,"latitude":32.615069,"elevation":2827.3622047244094,"distance":1270.8400271735072,"distanceTotal":9317.560027173507},{"longitude":-116.507958,"latitude":32.615266,"elevation":2816.9619422572177,"distance":1312.246077001054,"distanceTotal":9358.966077001054},{"longitude":-116.507703,"latitude":32.615392,"elevation":2811.056430446194,"distance":1312.246077001054,"distanceTotal":9358.966077001054},{"longitude":-116.50742,"latitude":32.615827,"elevation":2804.4947506561675,"distance":1395.9598020527528,"distanceTotal":9442.679802052753},{"longitude":-116.507485,"latitude":32.616189,"elevation":2800.0328083989502,"distance":1439.7788405198435,"distanceTotal":9486.498840519844},{"longitude":-116.508151,"latitude":32.616755,"elevation":2807.61154855643,"distance":1523.6750781502951,"distanceTotal":9570.395078150295},{"longitude":-116.507948,"latitude":32.616964,"elevation":2799.4094488188975,"distance":1559.8189765698653,"distanceTotal":9606.538976569866},{"longitude":-116.508051,"latitude":32.617134,"elevation":2800.8858267716537,"distance":1559.8189765698653,"distanceTotal":9606.538976569866},{"longitude":-116.50804,"latitude":32.61736,"elevation":2801.279527559055,"distance":1603.4077751979012,"distanceTotal":9650.127775197901},{"longitude":-116.507824,"latitude":32.61746,"elevation":2796.3910761154857,"distance":1631.1798481452488,"distanceTotal":9677.899848145249}],"elevationGain":287,"elevationLoss":43,"scale":1.1047976922052518,"centerpoint":{"latitude":"32.612821","longitude":"-116.507064"},"isCurrent":false,"hasMajorPoi":false,"hasMinorPoi":false,"poiTypes":{}},{"id":7,"elevationRange":{"open":2801.279527559055,"high":2996.1614173228345,"low":2795.505249343832,"close":2996.1614173228345},"waypoints":[{"longitude":-116.50804,"latitude":32.61736,"elevation":2801.279527559055,"distance":-5.936224802098877,"distanceTotal":9650.127775197901},{"longitude":-116.507824,"latitude":32.61746,"elevation":2796.3910761154857,"distance":21.835848145248747,"distanceTotal":9677.899848145249},{"longitude":-116.508069,"latitude":32.617666,"elevation":2803.9041994750655,"distance":59.517183033292895,"distanceTotal":9715.581183033293},{"longitude":-116.508021,"latitude":32.617806,"elevation":2795.505249343832,"distance":59.517183033292895,"distanceTotal":9715.581183033293},{"longitude":-116.508082,"latitude":32.617941,"elevation":2800.6889763779527,"distance":59.517183033292895,"distanceTotal":9715.581183033293},{"longitude":-116.507943,"latitude":32.618067,"elevation":2801.804461942257,"distance":93.69244244512265,"distanceTotal":9749.756442445123},{"longitude":-116.507623,"latitude":32.618107,"elevation":2803.576115485564,"distance":130.32885967588118,"distanceTotal":9786.392859675881},{"longitude":-116.507546,"latitude":32.618233,"elevation":2800.0984251968503,"distance":130.32885967588118,"distanceTotal":9786.392859675881},{"longitude":-116.507797,"latitude":32.618424,"elevation":2809.547244094488,"distance":169.0490358339066,"distanceTotal":9825.113035833907},{"longitude":-116.507961,"latitude":32.618718,"elevation":2812.303149606299,"distance":211.94357959215813,"distanceTotal":9868.007579592158},{"longitude":-116.508129,"latitude":32.618808,"elevation":2818.307086614173,"distance":211.94357959215813,"distanceTotal":9868.007579592158},{"longitude":-116.508068,"latitude":32.61893,"elevation":2820.308398950131,"distance":234.51117157106637,"distanceTotal":9890.575171571067},{"longitude":-116.507908,"latitude":32.618922,"elevation":2821.1614173228345,"distance":234.51117157106637,"distanceTotal":9890.575171571067},{"longitude":-116.507684,"latitude":32.619094,"elevation":2826.870078740157,"distance":271.95110816336273,"distanceTotal":9928.015108163363},{"longitude":-116.507774,"latitude":32.619388,"elevation":2833.070866141732,"distance":315.9295689374394,"distanceTotal":9971.99356893744},{"longitude":-116.508207,"latitude":32.619872,"elevation":2844.6850393700784,"distance":358.8357130714612,"distanceTotal":10014.899713071462},{"longitude":-116.507866,"latitude":32.620044,"elevation":2849.803149606299,"distance":386.59662756211765,"distanceTotal":10042.660627562118},{"longitude":-116.507694,"latitude":32.620309,"elevation":2853.4448818897636,"distance":427.37493134095166,"distanceTotal":10083.438931340952},{"longitude":-116.507774,"latitude":32.620545,"elevation":2863.0577427821518,"distance":469.3324961764465,"distanceTotal":10125.396496176447},{"longitude":-116.507719,"latitude":32.620917,"elevation":2866.765091863517,"distance":514.4545330417241,"distanceTotal":10170.518533041724},{"longitude":-116.507557,"latitude":32.620904,"elevation":2861.7125984251966,"distance":514.4545330417241,"distanceTotal":10170.518533041724},{"longitude":-116.50747,"latitude":32.620967,"elevation":2863.1889763779527,"distance":549.5579329947759,"distanceTotal":10205.621932994776},{"longitude":-116.507312,"latitude":32.620874,"elevation":2858.6942257217847,"distance":549.5579329947759,"distanceTotal":10205.621932994776},{"longitude":-116.50721,"latitude":32.620905,"elevation":2859.4160104986872,"distance":549.5579329947759,"distanceTotal":10205.621932994776},{"longitude":-116.506921,"latitude":32.621095,"elevation":2859.97375328084,"distance":585.7286779982696,"distanceTotal":10241.79267799827},{"longitude":-116.506867,"latitude":32.621299,"elevation":2859.350393700787,"distance":626.4262210658035,"distanceTotal":10282.490221065804},{"longitude":-116.506937,"latitude":32.621418,"elevation":2856.791338582677,"distance":626.4262210658035,"distanceTotal":10282.490221065804},{"longitude":-116.507521,"latitude":32.62176,"elevation":2870.3412073490813,"distance":707.8930085710945,"distanceTotal":10363.957008571095},{"longitude":-116.507615,"latitude":32.621913,"elevation":2868.044619422572,"distance":745.7959658761956,"distanceTotal":10401.859965876196},{"longitude":-116.507912,"latitude":32.621952,"elevation":2872.4081364829394,"distance":745.7959658761956,"distanceTotal":10401.859965876196},{"longitude":-116.508016,"latitude":32.622291,"elevation":2864.041994750656,"distance":781.8554577520827,"distanceTotal":10437.919457752083},{"longitude":-116.508649,"latitude":32.62288,"elevation":2872.112860892388,"distance":898.7995087494692,"distanceTotal":10554.86350874947},{"longitude":-116.508554,"latitude":32.622964,"elevation":2877.0997375328084,"distance":898.7995087494692,"distanceTotal":10554.86350874947},{"longitude":-116.508374,"latitude":32.622977,"elevation":2882.5787401574803,"distance":898.7995087494692,"distanceTotal":10554.86350874947},{"longitude":-116.508132,"latitude":32.622861,"elevation":2882.020997375328,"distance":936.3961056545231,"distanceTotal":10592.460105654523},{"longitude":-116.50778,"latitude":32.622968,"elevation":2889.5997375328084,"distance":973.6473428009904,"distanceTotal":10629.71134280099},{"longitude":-116.507517,"latitude":32.622953,"elevation":2889.041994750656,"distance":1011.7673928526092,"distanceTotal":10667.83139285261},{"longitude":-116.507314,"latitude":32.623061,"elevation":2888.7139107611547,"distance":1011.7673928526092,"distanceTotal":10667.83139285261},{"longitude":-116.50735,"latitude":32.623376,"elevation":2898.1299212598424,"distance":1048.4571718119005,"distanceTotal":10704.5211718119},{"longitude":-116.507085,"latitude":32.623747,"elevation":2906.9553805774276,"distance":1133.6308870138491,"distanceTotal":10789.69488701385},{"longitude":-116.507095,"latitude":32.624114,"elevation":2914.041994750656,"distance":1174.397038018069,"distanceTotal":10830.46103801807},{"longitude":-116.507444,"latitude":32.624395,"elevation":2928.051181102362,"distance":1213.8365479534878,"distanceTotal":10869.900547953488},{"longitude":-116.507383,"latitude":32.624939,"elevation":2939.6981627296586,"distance":1259.654607364857,"distanceTotal":10915.718607364857},{"longitude":-116.50755,"latitude":32.625017,"elevation":2947.670603674541,"distance":1297.3125205418273,"distanceTotal":10953.376520541828},{"longitude":-116.507631,"latitude":32.625344,"elevation":2949.9671916010498,"distance":1337.1624628199006,"distanceTotal":10993.226462819901},{"longitude":-116.508174,"latitude":32.625604,"elevation":2955.1837270341207,"distance":1377.414330498399,"distanceTotal":11033.4783304984},{"longitude":-116.508967,"latitude":32.626372,"elevation":2980.6758530183724,"distance":1503.7929118681404,"distanceTotal":11159.85691186814},{"longitude":-116.509517,"latitude":32.626422,"elevation":2989.862204724409,"distance":1578.6582017231995,"distanceTotal":11234.7222017232},{"longitude":-116.509783,"latitude":32.626758,"elevation":2996.1614173228345,"distance":1620.6632728594577,"distanceTotal":11276.727272859458}],"elevationGain":236,"elevationLoss":37,"scale":1.1047976922052518,"centerpoint":{"latitude":"32.621403","longitude":"-116.507824"},"isCurrent":false,"hasMajorPoi":false,"hasMinorPoi":false,"poiTypes":{}},{"id":8,"elevationRange":{"open":2989.862204724409,"high":3347.834645669291,"low":2989.862204724409,"close":3347.834645669291},